[
    {
        "chainCode": "IL",
        "iataCode": "NYC",
        "dupeId": 700018233,
        "name": "GARDEN INN AND SUIT",
        "hotelId": "ILNYC151",
        "geoCode": {
            "latitude": 40.66756,
            "longitude": -73.78679
        },
        "address": {
            "countryCode": "US"
        },
        "lastUpdate": "2023-06-15T09:55:17"
    },
    {
        "chainCode": "YX",
        "iataCode": "NYC",
        "dupeId": 502126859,
        "name": "SYNSIX HOTELTEST HOTEL XXX",
        "hotelId": "YXNYCXXX",
        "geoCode": {
            "latitude": 40.71455,
            "longitude": -74.00714
        },
        "address": {
            "countryCode": "US"
        },
        "lastUpdate": "2023-06-15T10:21:44"
    },
    {
        "chainCode": "DH",
        "iataCode": "NYC",
        "dupeId": 700155424,
        "name": "THE WALDORF ASTORIA",
        "hotelId": "DHNYCARN",
        "geoCode": {
            "latitude": 40.69599,
            "longitude": -73.96603
        },
        "address": {
            "countryCode": "US"
        },
        "masterChainCode": "TC",
        "lastUpdate": "2023-06-15T10:19:52"
    },
    {
        "chainCode": "WA",
        "iataCode": "NYC",
        "dupeId": 700155424,
        "name": "WALDORF ASTORIA NEW YORK",
        "hotelId": "WANYC506",
        "geoCode": {
            "latitude": 40.7565,
            "longitude": -73.9743
        },
        "address": {
            "countryCode": "US"
        },
        "masterChainCode": "EH",
        "lastUpdate": "2023-06-15T09:55:33"
    },
    {
        "chainCode": "YX",
        "iataCode": "NYC",
        "dupeId": 700151697,
        "name": "THE JEWEL HOTEL",
        "hotelId": "YXNYCJNY",
        "geoCode": {
            "latitude": 40.75979,
            "longitude": -73.97763
        },
        "address": {
            "countryCode": "US"
        },
        "lastUpdate": "2023-06-15T10:28:49"
    },
    {
        "chainCode": "XT",
        "iataCode": "NYC",
        "dupeId": 501943142,
        "name": "CHURCHILL AT 10 HANOVER SQUARE",
        "hotelId": "XTNYCHOV",
        "geoCode": {
            "latitude": 40.70435,
            "longitude": -74.00915
        },
        "address": {
            "countryCode": "US"
        },
        "lastUpdate": "2023-06-15T11:21:18"
    },
    {
        "chainCode": "IL",
        "iataCode": "NYC",
        "dupeId": 700155435,
        "name": "ALLIES INN B AND B",
        "hotelId": "ILNYC313",
        "geoCode": {
            "latitude": 40.81767,
            "longitude": -73.94663
        },
        "address": {
            "countryCode": "US"
        },
        "lastUpdate": "2023-06-15T09:52:55"
    },
    {
        "chainCode": "IL",
        "iataCode": "NYC",
        "dupeId": 700191911,
        "name": "GALAXY MOTEL",
        "hotelId": "ILNYC020",
        "geoCode": {
            "latitude": 40.65665,
            "longitude": -73.88932
        },
        "address": {
            "countryCode": "US"
        },
        "lastUpdate": "2023-06-15T11:08:56"
    },
    {
        "chainCode": "HH",
        "iataCode": "NYC",
        "dupeId": 700006414,
        "name": "HILTON MANHATTAN EAST",
        "hotelId": "HHNYC986",
        "geoCode": {
            "latitude": 40.74911,
            "longitude": -73.9721
        },
        "address": {
            "countryCode": "US"
        },
        "masterChainCode": "EH",
        "lastUpdate": "2023-06-15T10:18:02"
    },
    {
        "chainCode": "MC",
        "iataCode": "NYC",
        "dupeId": 700009917,
        "name": "NEW YORK MARRIOTT DOWNTOWN",
        "hotelId": "MCNYCWSM",
        "geoCode": {
            "latitude": 40.70975,
            "longitude": -74.01468
        },
        "address": {
            "countryCode": "US"
        },
        "masterChainCode": "EM",
        "lastUpdate": "2024-07-15T06:04:41"
    },
    {
        "chainCode": "HX",
        "iataCode": "NYC",
        "dupeId": 700078870,
        "name": "HAMPTON MANHATTAN-35TH ST-EMPIRE ST BLD",
        "hotelId": "HXNYC059",
        "geoCode": {
            "latitude": 40.74989,
            "longitude": -73.98599
        },
        "address": {
            "countryCode": "US"
        },
        "masterChainCode": "EH",
        "lastUpdate": "2023-06-15T09:42:41"
    },
    {
        "chainCode": "WH",
        "iataCode": "NYC",
        "dupeId": 700041443,
        "name": "W NEW YORK TIMES SQUARE",
        "hotelId": "WHNYC234",
        "geoCode": {
            "latitude": 40.75927,
            "longitude": -73.98513
        },
        "address": {
            "countryCode": "US"
        },
        "masterChainCode": "EM",
        "lastUpdate": "2024-07-15T06:03:38"
    },
    {
        "chainCode": "MO",
        "iataCode": "NYC",
        "dupeId": 700021329,
        "name": "MANDARIN ORIENTAL NEW YORK",
        "hotelId": "MONYCMO1",
        "geoCode": {
            "latitude": 40.76901,
            "longitude": -73.98293
        },
        "address": {
            "countryCode": "US"
        },
        "lastUpdate": "2023-06-15T09:56:19"
    },
    {
        "chainCode": "SI",
        "iataCode": "NYC",
        "dupeId": 700128200,
        "name": "FOUR POINTS MIDTOWN TIMES SQRE",
        "hotelId": "SINYC713",
        "geoCode": {
            "latitude": 40.75625,
            "longitude": -73.99147
        },
        "address": {
            "countryCode": "US"
        },
        "masterChainCode": "EM",
        "lastUpdate": "2023-06-15T10:02:37"
    },
    {
        "chainCode": "LO",
        "iataCode": "NYC",
        "dupeId": 700143930,
        "name": "LANGHAM PLACE FIFTH AVENUE",
        "hotelId": "LONYC742",
        "geoCode": {
            "latitude": 40.75023,
            "longitude": -73.98371
        },
        "address": {
            "countryCode": "US"
        },
        "masterChainCode": "LO",
        "lastUpdate": "2023-06-15T10:30:06"
    },
    {
        "chainCode": "XT",
        "iataCode": "NYC",
        "dupeId": 501935187,
        "name": "CHURCHILL AT WEST 48TH ST",
        "hotelId": "XTNYC48S",
        "geoCode": {
            "latitude": 40.76106,
            "longitude": -73.98766
        },
        "address": {
            "countryCode": "US"
        },
        "lastUpdate": "2023-06-15T11:20:56"
    },
    {
        "chainCode": "WV",
        "iataCode": "NYC",
        "dupeId": 700064084,
        "name": "CITY CLUB",
        "hotelId": "WVNYC110",
        "geoCode": {
            "latitude": 40.75551,
            "longitude": -73.98172
        },
        "address": {
            "countryCode": "US"
        },
        "masterChainCode": "TC",
        "lastUpdate": "2023-06-15T09:58:41"
    },
    {
        "chainCode": "BW",
        "iataCode": "NYC",
        "dupeId": 700063962,
        "name": "BEST WESTERN WOODBURY INN",
        "hotelId": "BWNYC102",
        "geoCode": {
            "latitude": 40.81416,
            "longitude": -73.47905
        },
        "address": {
            "countryCode": "US"
        },
        "masterChainCode": "EW",
        "lastUpdate": "2023-06-15T09:56:02"
    },
    {
        "chainCode": "BW",
        "iataCode": "NYC",
        "dupeId": 700005350,
        "name": "BW PLUS PRESIDENT HOTEL",
        "hotelId": "BWNYC084",
        "geoCode": {
            "latitude": 40.7605,
            "longitude": -73.98639
        },
        "address": {
            "countryCode": "US"
        },
        "masterChainCode": "EW",
        "lastUpdate": "2023-06-15T09:58:55"
    },
    {
        "chainCode": "DI",
        "iataCode": "NYC",
        "dupeId": 502157279,
        "name": "TEST MASTER CHAIN WYNDHAMDI",
        "hotelId": "DINYC578",
        "geoCode": {
            "latitude": 40.6436,
            "longitude": -74.07872
        },
        "address": {
            "countryCode": "US"
        },
        "masterChainCode": "WR",
        "lastUpdate": "2023-06-15T10:20:55"
    },
    {
        "chainCode": "IL",
        "iataCode": "NYC",
        "dupeId": 501426278,
        "name": "TEN15NYC",
        "hotelId": "ILNYC101",
        "geoCode": {
            "latitude": 40.75226,
            "longitude": -73.98631
        },
        "address": {
            "countryCode": "US"
        },
        "lastUpdate": "2023-06-15T10:19:05"
    },
    {
        "chainCode": "HI",
        "iataCode": "NYC",
        "dupeId": 700008341,
        "name": "HOLIDAY INN MIDTOWN 57TH ST",
        "hotelId": "HINYC015",
        "geoCode": {
            "latitude": 40.76822,
            "longitude": -73.98685
        },
        "address": {
            "countryCode": "US"
        },
        "masterChainCode": "6C",
        "lastUpdate": "2023-06-15T09:56:50"
    },
    {
        "chainCode": "YX",
        "iataCode": "NYC",
        "dupeId": 700066668,
        "name": "HOTEL GIRAFFE BY HKHOTELS",
        "hotelId": "YXNYCGIR",
        "geoCode": {
            "latitude": 40.74207,
            "longitude": -73.98492
        },
        "address": {
            "countryCode": "US"
        },
        "lastUpdate": "2023-06-15T10:03:09"
    },
    {
        "chainCode": "LW",
        "iataCode": "NYC",
        "dupeId": 700070183,
        "name": "THE LOWELL",
        "hotelId": "LWNYC765",
        "geoCode": {
            "latitude": 40.76591,
            "longitude": -73.9691
        },
        "address": {
            "countryCode": "US"
        },
        "lastUpdate": "2023-06-15T09:55:48"
    },
    {
        "chainCode": "CI",
        "iataCode": "NYC",
        "dupeId": 700108085,
        "name": "COMFORT INN BROOKLYN",
        "hotelId": "CINYC584",
        "geoCode": {
            "latitude": 40.65881,
            "longitude": -73.93078
        },
        "address": {
            "countryCode": "US"
        },
        "masterChainCode": "EC",
        "lastUpdate": "2023-06-15T11:09:17"
    },
    {
        "chainCode": "YX",
        "iataCode": "NYC",
        "dupeId": 700018621,
        "name": "PARK SOUTH HOTEL",
        "hotelId": "YXNYCPSH",
        "geoCode": {
            "latitude": 40.74278,
            "longitude": -73.9829
        },
        "address": {
            "countryCode": "US"
        },
        "lastUpdate": "2023-06-15T11:09:19"
    },
    {
        "chainCode": "HS",
        "iataCode": "NYC",
        "dupeId": 700006955,
        "name": "EASTGATE TOWER",
        "hotelId": "HSNYCAAE",
        "geoCode": {
            "latitude": 40.74819,
            "longitude": -73.9749
        },
        "address": {
            "countryCode": "US"
        },
        "lastUpdate": "2023-06-15T11:15:23"
    },
    {
        "chainCode": "YX",
        "iataCode": "NYC",
        "dupeId": 700155475,
        "name": "FLATIRON HOTEL",
        "hotelId": "YXNYCTFH",
        "geoCode": {
            "latitude": 40.74377,
            "longitude": -73.98882
        },
        "address": {
            "countryCode": "US"
        },
        "lastUpdate": "2023-06-15T10:13:53"
    },
    {
        "chainCode": "XT",
        "iataCode": "NYC",
        "dupeId": 700217611,
        "name": "THE BROOME",
        "hotelId": "XTNYCBSH",
        "geoCode": {
            "latitude": 40.72129,
            "longitude": -73.99939
        },
        "address": {
            "countryCode": "US"
        },
        "lastUpdate": "2023-06-15T10:09:57"
    },
    {
        "chainCode": "WI",
        "iataCode": "NYC",
        "dupeId": 700013411,
        "name": "WESTIN NEW YORK GRAND CENTRAL",
        "hotelId": "WINYC789",
        "geoCode": {
            "latitude": 40.75051,
            "longitude": -73.97396
        },
        "address": {
            "countryCode": "US"
        },
        "masterChainCode": "EM",
        "lastUpdate": "2024-01-23T05:39:05"
    },
    {
        "chainCode": "HI",
        "iataCode": "NYC",
        "dupeId": 501905207,
        "name": "HOLIDAY INN NEVINS STATION",
        "hotelId": "HINYCB36",
        "geoCode": {
            "latitude": 40.68739,
            "longitude": -73.98265
        },
        "address": {
            "countryCode": "US"
        },
        "masterChainCode": "6C",
        "lastUpdate": "2023-06-15T11:20:55"
    },
    {
        "chainCode": "FN",
        "iataCode": "NYC",
        "dupeId": 700149007,
        "name": "FAIRFIELD INN MARRIOTT BROOKLY",
        "hotelId": "FNNYCBFF",
        "geoCode": {
            "latitude": 40.6809,
            "longitude": -73.9837
        },
        "address": {
            "countryCode": "US"
        },
        "masterChainCode": "EM",
        "lastUpdate": "2024-10-07T06:00:43"
    },
    {
        "chainCode": "XT",
        "iataCode": "NYC",
        "dupeId": 700070576,
        "name": "DUANE STREET HOTEL",
        "hotelId": "XTNYC130",
        "geoCode": {
            "latitude": 40.71586,
            "longitude": -74.00745
        },
        "address": {
            "countryCode": "US"
        },
        "lastUpdate": "2023-06-15T09:51:21"
    },
    {
        "chainCode": "YO",
        "iataCode": "NYC",
        "dupeId": 700070326,
        "name": "CANDLEWOOD SUITES NANUET",
        "hotelId": "YONYC001",
        "geoCode": {
            "latitude": 41.10802,
            "longitude": -74.02597
        },
        "address": {
            "countryCode": "US"
        },
        "masterChainCode": "6C",
        "lastUpdate": "2023-06-15T09:57:08"
    },
    {
        "chainCode": "UZ",
        "iataCode": "NYC",
        "dupeId": 700106880,
        "name": "HERALD SQUARE HOTEL",
        "hotelId": "UZNYCCLI",
        "geoCode": {
            "latitude": 40.74691,
            "longitude": -73.98684
        },
        "address": {
            "countryCode": "US"
        },
        "lastUpdate": "2023-06-15T09:56:04"
    },
    {
        "chainCode": "KC",
        "iataCode": "NYC",
        "dupeId": 700043029,
        "name": "THE MUSE NY A KIMPTON HOTEL",
        "hotelId": "KCNYCMSE",
        "geoCode": {
            "latitude": 40.75774,
            "longitude": -73.98307
        },
        "address": {
            "countryCode": "US"
        },
        "masterChainCode": "6C",
        "lastUpdate": "2023-06-15T09:55:00"
    },
    {
        "chainCode": "WW",
        "iataCode": "NYC",
        "dupeId": 700005213,
        "name": "BENTLEY HOTEL",
        "hotelId": "WWNYCBEN",
        "geoCode": {
            "latitude": 40.7601,
            "longitude": -73.95828
        },
        "address": {
            "countryCode": "US"
        },
        "masterChainCode": "EW",
        "lastUpdate": "2023-06-15T10:07:04"
    },
    {
        "chainCode": "UZ",
        "iataCode": "NYC",
        "dupeId": 700004492,
        "name": "AMERICANA INN",
        "hotelId": "UZNYCSLE",
        "geoCode": {
            "latitude": 40.75188,
            "longitude": -73.98497
        },
        "address": {
            "countryCode": "US"
        },
        "lastUpdate": "2023-06-15T09:55:33"
    },
    {
        "chainCode": "CP",
        "iataCode": "NYC",
        "dupeId": 700008156,
        "name": "CROWNE PLAZA JFK AIRPORT NYC",
        "hotelId": "CPNYC58E",
        "geoCode": {
            "latitude": 40.66776,
            "longitude": -73.79924
        },
        "address": {
            "countryCode": "US"
        },
        "masterChainCode": "6C",
        "lastUpdate": "2023-06-15T10:31:23"
    },
    {
        "chainCode": "UI",
        "iataCode": "NYC",
        "dupeId": 502052186,
        "name": "NYC PROPERTY 999",
        "hotelId": "UINYC999",
        "geoCode": {
            "latitude": 38.99854,
            "longitude": -105.54781
        },
        "address": {
            "countryCode": "US"
        },
        "lastUpdate": "2023-06-15T11:21:38"
    },
    {
        "chainCode": "YX",
        "iataCode": "NYC",
        "dupeId": 700113459,
        "name": "THE INN ON 23RD",
        "hotelId": "YXNYCINN",
        "geoCode": {
            "latitude": 40.74325,
            "longitude": -73.99366
        },
        "address": {
            "countryCode": "US"
        },
        "lastUpdate": "2023-06-15T09:56:05"
    },
    {
        "chainCode": "YX",
        "iataCode": "NYC",
        "dupeId": 700109433,
        "name": "MANHATTAN BROADWAY HOTEL",
        "hotelId": "YXNYC062",
        "geoCode": {
            "latitude": 40.75472,
            "longitude": -73.99106
        },
        "address": {
            "countryCode": "US"
        },
        "lastUpdate": "2023-06-15T09:56:05"
    },
    {
        "chainCode": "HX",
        "iataCode": "NYC",
        "dupeId": 700030225,
        "name": "HMPTN INN MANHATTAN MDSON GDN",
        "hotelId": "HXNYC116",
        "geoCode": {
            "latitude": 40.74788,
            "longitude": -73.9895
        },
        "address": {
            "countryCode": "US"
        },
        "masterChainCode": "EH",
        "lastUpdate": "2023-06-15T09:58:40"
    },
    {
        "chainCode": "UZ",
        "iataCode": "NYC",
        "dupeId": 700014310,
        "name": "HOTEL WOLCOTT",
        "hotelId": "UZNYC448",
        "geoCode": {
            "latitude": 40.74656,
            "longitude": -73.98605
        },
        "address": {
            "countryCode": "US"
        },
        "lastUpdate": "2023-06-15T09:55:33"
    },
    {
        "chainCode": "CI",
        "iataCode": "NYC",
        "dupeId": 700101808,
        "name": "COMFORT INN TIMES SQUARE SOUTH AREA",
        "hotelId": "CINYC325",
        "geoCode": {
            "latitude": 40.75555,
            "longitude": -73.99178
        },
        "address": {
            "countryCode": "US"
        },
        "masterChainCode": "EC",
        "lastUpdate": "2023-06-15T10:07:18"
    },
    {
        "chainCode": "NZ",
        "iataCode": "NYC",
        "dupeId": 700053236,
        "name": "ASCEND COLLECTION THE SOLITA SOHO HOTEL",
        "hotelId": "NZNYC288",
        "geoCode": {
            "latitude": 40.71978,
            "longitude": -73.99901
        },
        "address": {
            "countryCode": "US"
        },
        "masterChainCode": "EC",
        "lastUpdate": "2023-06-15T10:16:28"
    },
    {
        "chainCode": "NY",
        "iataCode": "NYC",
        "dupeId": 700013336,
        "name": "THE FRANKLIN HOTEL",
        "hotelId": "NYNYCFRA",
        "geoCode": {
            "latitude": 40.77991,
            "longitude": -73.95459
        },
        "address": {
            "countryCode": "US"
        },
        "masterChainCode": "SN",
        "lastUpdate": "2023-06-15T10:13:04"
    },
    {
        "chainCode": "YX",
        "iataCode": "NYC",
        "dupeId": 700136808,
        "name": "SETON HOTEL",
        "hotelId": "YXNYCHSE",
        "geoCode": {
            "latitude": 40.74996,
            "longitude": -73.97663
        },
        "address": {
            "countryCode": "US"
        },
        "lastUpdate": "2023-06-15T09:55:02"
    },
    {
        "chainCode": "LW",
        "iataCode": "NYC",
        "dupeId": 700011167,
        "name": "HOTEL PLAZA ATHENEE NEW YORK",
        "hotelId": "LWNYC760",
        "geoCode": {
            "latitude": 40.7665,
            "longitude": -73.96838
        },
        "address": {
            "countryCode": "US"
        },
        "lastUpdate": "2023-06-15T09:54:45"
    },
    {
        "chainCode": "GI",
        "iataCode": "NYC",
        "dupeId": 700107064,
        "name": "HILTON GI NEW YORK -TRIBECA",
        "hotelId": "GINYC212",
        "geoCode": {
            "latitude": 40.72101,
            "longitude": -74.00523
        },
        "address": {
            "countryCode": "US"
        },
        "masterChainCode": "EH",
        "lastUpdate": "2023-06-15T09:56:19"
    },
    {
        "chainCode": "SP",
        "iataCode": "NYC",
        "dupeId": 502160948,
        "name": "TEST MASTER CHAIN WYNDHAMSP",
        "hotelId": "SPNYCPRO",
        "geoCode": {
            "latitude": 40.70763,
            "longitude": -74.01147
        },
        "address": {
            "countryCode": "US"
        },
        "masterChainCode": "6C",
        "lastUpdate": "2023-06-15T10:24:21"
    },
    {
        "chainCode": "XT",
        "iataCode": "NYC",
        "dupeId": 501519033,
        "name": "CASSA TIMES SQUARE",
        "hotelId": "XTNYCCTS",
        "geoCode": {
            "latitude": 40.75612,
            "longitude": -73.99438
        },
        "address": {
            "countryCode": "US"
        },
        "lastUpdate": "2023-06-15T10:13:21"
    },
    {
        "chainCode": "BW",
        "iataCode": "NYC",
        "dupeId": 700046200,
        "name": "BEST WESTERN MILL RIVER MANOR",
        "hotelId": "BWNYC129",
        "geoCode": {
            "latitude": 40.65747,
            "longitude": -73.64886
        },
        "address": {
            "countryCode": "US"
        },
        "masterChainCode": "EW",
        "lastUpdate": "2024-05-01T19:42:16"
    },
    {
        "chainCode": "FN",
        "iataCode": "NYC",
        "dupeId": 700183568,
        "name": "FAIRFIELD INN N STES MARRIOTT",
        "hotelId": "FNNYCPSF",
        "geoCode": {
            "latitude": 40.75226,
            "longitude": -73.99512
        },
        "address": {
            "countryCode": "US"
        },
        "masterChainCode": "EM",
        "lastUpdate": "2024-07-15T06:03:50"
    },
    {
        "chainCode": "XT",
        "iataCode": "NYC",
        "dupeId": 700218112,
        "name": "HOTEL HUGO",
        "hotelId": "XTNYCHGO",
        "geoCode": {
            "latitude": 40.72643,
            "longitude": -74.00896
        },
        "address": {
            "countryCode": "US"
        },
        "lastUpdate": "2023-06-15T11:06:50"
    },
    {
        "chainCode": "LW",
        "iataCode": "NYC",
        "dupeId": 502052188,
        "name": "NYC PROPERTY 999",
        "hotelId": "LWNYC999",
        "geoCode": {
            "latitude": 38.99854,
            "longitude": -105.54781
        },
        "address": {
            "countryCode": "US"
        },
        "lastUpdate": "2023-06-15T11:21:37"
    },
    {
        "chainCode": "YX",
        "iataCode": "NYC",
        "dupeId": 700027122,
        "name": "HOTEL DEAUVILLE",
        "hotelId": "YXNYCH01",
        "geoCode": {
            "latitude": 40.74382,
            "longitude": -73.98341
        },
        "address": {
            "countryCode": "US"
        },
        "lastUpdate": "2023-06-15T09:58:41"
    },
    {
        "chainCode": "CQ",
        "iataCode": "NYC",
        "dupeId": 700190076,
        "name": "CLUB QUARTERS THE ANNEX AT ROC",
        "hotelId": "CQNYC171",
        "geoCode": {
            "latitude": 40.75979,
            "longitude": -73.97763
        },
        "address": {
            "countryCode": "US"
        },
        "lastUpdate": "2023-06-15T10:26:25"
    },
    {
        "chainCode": "AL",
        "iataCode": "NYC",
        "dupeId": 700143877,
        "name": "ALOFT HARLEM",
        "hotelId": "ALNYC353",
        "geoCode": {
            "latitude": 40.80906,
            "longitude": -73.95155
        },
        "address": {
            "countryCode": "US"
        },
        "masterChainCode": "EM",
        "lastUpdate": "2024-07-22T06:08:31"
    },
    {
        "chainCode": "BW",
        "iataCode": "NYC",
        "dupeId": 700038343,
        "name": "BEST WESTERN PLUS HOSPITALITY",
        "hotelId": "BWNYC114",
        "geoCode": {
            "latitude": 40.75618,
            "longitude": -73.97362
        },
        "address": {
            "countryCode": "US"
        },
        "masterChainCode": "EW",
        "lastUpdate": "2024-05-01T19:41:26"
    },
    {
        "chainCode": "HI",
        "iataCode": "NYC",
        "dupeId": 700225254,
        "name": "HOLIDAY INN MANHATTAN - FD",
        "hotelId": "HINYCA2B",
        "geoCode": {
            "latitude": 40.70827,
            "longitude": -74.01411
        },
        "address": {
            "countryCode": "US"
        },
        "masterChainCode": "6C",
        "lastUpdate": "2023-06-15T11:12:52"
    },
    {
        "chainCode": "MC",
        "iataCode": "NYC",
        "dupeId": 700009925,
        "name": "NEW YORK MARRIOTT MARQUIS",
        "hotelId": "MCNYCMQM",
        "geoCode": {
            "latitude": 40.75828,
            "longitude": -73.9856
        },
        "address": {
            "countryCode": "US"
        },
        "masterChainCode": "EM",
        "lastUpdate": "2025-06-09T06:10:49"
    },
    {
        "chainCode": "IC",
        "iataCode": "NYC",
        "dupeId": 700141032,
        "name": "INTERCONTINENTAL TIMES SQUARE",
        "hotelId": "ICNYCCF8",
        "geoCode": {
            "latitude": 40.75854,
            "longitude": -73.98884
        },
        "address": {
            "countryCode": "US"
        },
        "masterChainCode": "6C",
        "lastUpdate": "2023-06-15T10:16:13"
    },
    {
        "chainCode": "FN",
        "iataCode": "NYC",
        "dupeId": 700147605,
        "name": "FAIRFIELD INN MARRIOTT 5TH AVE",
        "hotelId": "FNNYCTMF",
        "geoCode": {
            "latitude": 40.75106,
            "longitude": -73.98448
        },
        "address": {
            "countryCode": "US"
        },
        "masterChainCode": "EM",
        "lastUpdate": "2024-01-08T13:40:25"
    },
    {
        "chainCode": "NZ",
        "iataCode": "NYC",
        "dupeId": 700099318,
        "name": "THE GEM HOTEL-SOHO",
        "hotelId": "NZNYC425",
        "geoCode": {
            "latitude": 40.72385,
            "longitude": -73.99147
        },
        "address": {
            "countryCode": "US"
        },
        "masterChainCode": "EC",
        "lastUpdate": "2023-06-15T09:52:55"
    },
    {
        "chainCode": "CY",
        "iataCode": "NYC",
        "dupeId": 700188561,
        "name": "COURTYARD T-SQ WEST MARRIOTT",
        "hotelId": "CYNYCETC",
        "geoCode": {
            "latitude": 40.75453,
            "longitude": -73.99253
        },
        "address": {
            "countryCode": "US"
        },
        "masterChainCode": "EM",
        "lastUpdate": "2023-06-15T10:30:21"
    },
    {
        "chainCode": "TM",
        "iataCode": "NYC",
        "dupeId": 700110314,
        "name": "SMYTH - A THOMPSON HOTEL",
        "hotelId": "TMNYC822",
        "geoCode": {
            "latitude": 40.71517,
            "longitude": -74.00942
        },
        "address": {
            "countryCode": "US"
        },
        "lastUpdate": "2023-06-15T10:35:37"
    },
    {
        "chainCode": "DH",
        "iataCode": "NYC",
        "dupeId": 700153735,
        "name": "POINTE PLAZA HOTEL",
        "hotelId": "DHNYCATO",
        "geoCode": {
            "latitude": 40.69929,
            "longitude": -73.95911
        },
        "address": {
            "countryCode": "US"
        },
        "masterChainCode": "TC",
        "lastUpdate": "2023-06-15T11:09:28"
    },
    {
        "chainCode": "HG",
        "iataCode": "NYC",
        "dupeId": 700211707,
        "name": "HOMEWOOD NEW YORK MANHATTAN TIMES SQUARE",
        "hotelId": "HGNYC454",
        "geoCode": {
            "latitude": 40.75427,
            "longitude": -73.99308
        },
        "address": {
            "countryCode": "US"
        },
        "masterChainCode": "EH",
        "lastUpdate": "2023-06-15T11:05:21"
    },
    {
        "chainCode": "YX",
        "iataCode": "NYC",
        "dupeId": 700032209,
        "name": "HOTEL 17",
        "hotelId": "YXNYC003",
        "geoCode": {
            "latitude": 40.73472,
            "longitude": -73.98465
        },
        "address": {
            "countryCode": "US"
        },
        "lastUpdate": "2023-06-15T09:55:02"
    },
    {
        "chainCode": "WW",
        "iataCode": "NYC",
        "dupeId": 501720874,
        "name": "HOTEL 35 HERALD SQUARE NYC",
        "hotelId": "WWNYC410",
        "geoCode": {
            "latitude": 40.74963,
            "longitude": -73.98548
        },
        "address": {
            "countryCode": "US"
        },
        "masterChainCode": "EW",
        "lastUpdate": "2023-06-15T11:11:28"
    },
    {
        "chainCode": "HS",
        "iataCode": "NYC",
        "dupeId": 501815988,
        "name": "HUGO SOHO",
        "hotelId": "HSNYCAPW",
        "geoCode": {
            "latitude": 40.72648,
            "longitude": -74.00902
        },
        "address": {
            "countryCode": "US"
        },
        "lastUpdate": "2023-06-15T11:16:16"
    },
    {
        "chainCode": "BW",
        "iataCode": "NYC",
        "dupeId": 700144928,
        "name": "BW PLUS PROSPECT PARK",
        "hotelId": "BWNYC147",
        "geoCode": {
            "latitude": 40.66025,
            "longitude": -73.99834
        },
        "address": {
            "countryCode": "US"
        },
        "masterChainCode": "EW",
        "lastUpdate": "2023-06-15T10:19:36"
    },
    {
        "chainCode": "NZ",
        "iataCode": "NYC",
        "dupeId": 700163254,
        "name": "HOTEL DE POINT AN ASCEND COLLECTION",
        "hotelId": "NZNYC565",
        "geoCode": {
            "latitude": 40.78112,
            "longitude": -73.84096
        },
        "address": {
            "countryCode": "US"
        },
        "masterChainCode": "EC",
        "lastUpdate": "2023-06-15T10:24:52"
    },
    {
        "chainCode": "UZ",
        "iataCode": "NYC",
        "dupeId": 700179276,
        "name": "EXECUSTAY AT THE YORK",
        "hotelId": "UZNYCTY1",
        "geoCode": {
            "latitude": 40.75259,
            "longitude": -73.98984
        },
        "address": {
            "countryCode": "US"
        },
        "lastUpdate": "2023-06-15T10:24:21"
    },
    {
        "chainCode": "CY",
        "iataCode": "NYC",
        "dupeId": 700190078,
        "name": "COURTYARD HERALD SQ MARRIOTT",
        "hotelId": "CYNYCMSC",
        "geoCode": {
            "latitude": 40.75007,
            "longitude": -73.98629
        },
        "address": {
            "countryCode": "US"
        },
        "masterChainCode": "EM",
        "lastUpdate": "2023-06-15T09:50:32"
    },
    {
        "chainCode": "UI",
        "iataCode": "NYC",
        "dupeId": 700116260,
        "name": "THE ROSLYN HOTEL",
        "hotelId": "UINYCROS",
        "geoCode": {
            "latitude": 40.80122,
            "longitude": -73.65242
        },
        "address": {
            "countryCode": "US"
        },
        "lastUpdate": "2023-06-15T09:56:20"
    },
    {
        "chainCode": "CI",
        "iataCode": "NYC",
        "dupeId": 700004690,
        "name": "COMFORT INN AND SUITES MIAMI AIRPORT",
        "hotelId": "CINYC329",
        "geoCode": {
            "latitude": 40.7432,
            "longitude": -73.98958
        },
        "address": {
            "countryCode": "US"
        },
        "masterChainCode": "EC",
        "lastUpdate": "2023-06-15T09:58:23"
    },
    {
        "chainCode": "YX",
        "iataCode": "NYC",
        "dupeId": 700051861,
        "name": "FITZPATRICK MANHATTAN HOTEL",
        "hotelId": "YXNYCFMH",
        "geoCode": {
            "latitude": 40.76057,
            "longitude": -73.96948
        },
        "address": {
            "countryCode": "US"
        },
        "lastUpdate": "2023-06-15T09:55:02"
    },
    {
        "chainCode": "WV",
        "iataCode": "NYC",
        "dupeId": 700003310,
        "name": "HOTEL PENNSYLVANIA",
        "hotelId": "WVNYCNHP",
        "geoCode": {
            "latitude": 40.74989,
            "longitude": -73.99084
        },
        "address": {
            "countryCode": "US"
        },
        "masterChainCode": "TC",
        "lastUpdate": "2023-06-15T10:34:03"
    },
    {
        "chainCode": "RC",
        "iataCode": "NYC",
        "dupeId": 700070983,
        "name": "RESIDENCE INN TIME SQ MARRIOTT",
        "hotelId": "RCNYCRIR",
        "geoCode": {
            "latitude": 40.75274,
            "longitude": -73.98563
        },
        "address": {
            "countryCode": "US"
        },
        "masterChainCode": "EM",
        "lastUpdate": "2024-07-15T06:06:51"
    },
    {
        "chainCode": "RD",
        "iataCode": "NYC",
        "dupeId": 700037623,
        "name": "RADISSON HOTEL JFK AIRPORT",
        "hotelId": "RDNYC879",
        "geoCode": {
            "latitude": 40.66744,
            "longitude": -73.7981
        },
        "address": {
            "countryCode": "US"
        },
        "masterChainCode": "CW",
        "lastUpdate": "2023-06-15T10:33:48"
    },
    {
        "chainCode": "XT",
        "iataCode": "NYC",
        "dupeId": 502322310,
        "name": "MANHATTAN AT TIMES SQUARE",
        "hotelId": "XTNYC425",
        "geoCode": {
            "latitude": 0.0004,
            "longitude": -0.00073
        },
        "address": {
            "countryCode": "US"
        },
        "lastUpdate": "2023-06-15T11:09:41"
    },
    {
        "chainCode": "NY",
        "iataCode": "NYC",
        "dupeId": 700041776,
        "name": "THE MANSFIELD HOTEL",
        "hotelId": "NYNYCMAN",
        "geoCode": {
            "latitude": 40.75503,
            "longitude": -73.98112
        },
        "address": {
            "countryCode": "US"
        },
        "masterChainCode": "SN",
        "lastUpdate": "2023-06-15T10:07:50"
    },
    {
        "chainCode": "SI",
        "iataCode": "NYC",
        "dupeId": 700038913,
        "name": "FOUR POINTS MANHATTAN",
        "hotelId": "SINYC408",
        "geoCode": {
            "latitude": 40.74483,
            "longitude": -73.99368
        },
        "address": {
            "countryCode": "US"
        },
        "masterChainCode": "EM",
        "lastUpdate": "2023-06-15T09:56:04"
    },
    {
        "chainCode": "UI",
        "iataCode": "NYC",
        "dupeId": 700189626,
        "name": "THE JADE HOTEL GREENWICH VILLAGE",
        "hotelId": "UINYC467",
        "geoCode": {
            "latitude": 40.73598,
            "longitude": -73.99581
        },
        "address": {
            "countryCode": "US"
        },
        "lastUpdate": "2023-06-15T10:30:54"
    },
    {
        "chainCode": "XV",
        "iataCode": "NYC",
        "dupeId": 700190086,
        "name": "SPRINGHILL STES LAGUA MARRIOTT",
        "hotelId": "XVNYCQCS",
        "geoCode": {
            "latitude": 40.75809,
            "longitude": -73.85808
        },
        "address": {
            "countryCode": "US"
        },
        "masterChainCode": "EM",
        "lastUpdate": "2024-01-15T08:03:02"
    },
    {
        "chainCode": "CY",
        "iataCode": "NYC",
        "dupeId": 700006362,
        "name": "COURTYARD TIMES SQ MARRIOTT",
        "hotelId": "CYNYCMDC",
        "geoCode": {
            "latitude": 40.75386,
            "longitude": -73.98578
        },
        "address": {
            "countryCode": "US"
        },
        "masterChainCode": "EM",
        "lastUpdate": "2024-04-22T06:04:01"
    },
    {
        "chainCode": "UI",
        "iataCode": "NYC",
        "dupeId": 700069131,
        "name": "OFF SOHO SUITES HOTEL",
        "hotelId": "UINYCOSG",
        "geoCode": {
            "latitude": 40.7215,
            "longitude": -73.99312
        },
        "address": {
            "countryCode": "US"
        },
        "lastUpdate": "2023-06-15T09:54:46"
    },
    {
        "chainCode": "WH",
        "iataCode": "NYC",
        "dupeId": 700038789,
        "name": "W NEW YORK - UNION SQUARE",
        "hotelId": "WHNYC299",
        "geoCode": {
            "latitude": 40.7365,
            "longitude": -73.98891
        },
        "address": {
            "countryCode": "US"
        },
        "masterChainCode": "EM",
        "lastUpdate": "2024-01-15T14:52:05"
    },
    {
        "chainCode": "YX",
        "iataCode": "NYC",
        "dupeId": 700007394,
        "name": "FITZPATRICK GRAND CENTRAL HOTEL",
        "hotelId": "YXNYCFIT",
        "geoCode": {
            "latitude": 40.75242,
            "longitude": -73.97448
        },
        "address": {
            "countryCode": "US"
        },
        "lastUpdate": "2023-06-15T09:54:46"
    },
    {
        "chainCode": "WY",
        "iataCode": "NYC",
        "dupeId": 700155916,
        "name": "WYNDHAM GARDEN CHINATOWN",
        "hotelId": "WYNYC995",
        "geoCode": {
            "latitude": 40.71714,
            "longitude": -73.99545
        },
        "address": {
            "countryCode": "US"
        },
        "masterChainCode": "WR",
        "lastUpdate": "2023-06-15T10:23:33"
    },
    {
        "chainCode": "CQ",
        "iataCode": "NYC",
        "dupeId": 700064200,
        "name": "CLUB QUARTERS MIDTOWN",
        "hotelId": "CQNYC558",
        "geoCode": {
            "latitude": 40.75587,
            "longitude": -73.98084
        },
        "address": {
            "countryCode": "US"
        },
        "lastUpdate": "2023-06-15T09:55:47"
    },
    {
        "chainCode": "SI",
        "iataCode": "NYC",
        "dupeId": 700119909,
        "name": "FOUR POINTS PLAINVIEW",
        "hotelId": "SINYC476",
        "geoCode": {
            "latitude": 40.78543,
            "longitude": -73.44703
        },
        "address": {
            "countryCode": "US"
        },
        "masterChainCode": "EM",
        "lastUpdate": "2023-06-15T09:58:41"
    },
    {
        "chainCode": "WW",
        "iataCode": "NYC",
        "dupeId": 700004509,
        "name": "AMSTERDAM COURT",
        "hotelId": "WWNYCCOU",
        "geoCode": {
            "latitude": 40.76167,
            "longitude": -73.98464
        },
        "address": {
            "countryCode": "US"
        },
        "masterChainCode": "EW",
        "lastUpdate": "2023-06-15T09:56:20"
    },
    {
        "chainCode": "PH",
        "iataCode": "NYC",
        "dupeId": 501950056,
        "name": "AKA CENTRAL PARK",
        "hotelId": "PHNYCACP",
        "geoCode": {
            "latitude": 40.76431,
            "longitude": -73.97568
        },
        "address": {
            "countryCode": "US"
        },
        "masterChainCode": "PV",
        "lastUpdate": "2023-06-15T11:21:18"
    },
    {
        "chainCode": "RC",
        "iataCode": "NYC",
        "dupeId": 700008088,
        "name": "RESIDENCE INN MIDTOWN MARRIOTT",
        "hotelId": "RCNYCHAR",
        "geoCode": {
            "latitude": 40.75502,
            "longitude": -73.97286
        },
        "address": {
            "countryCode": "US"
        },
        "masterChainCode": "EM",
        "lastUpdate": "2024-01-24T23:54:54"
    },
    {
        "chainCode": "AL",
        "iataCode": "NYC",
        "dupeId": 700147781,
        "name": "ALOFT NEW YORK BROOKLYN",
        "hotelId": "ALNYC192",
        "geoCode": {
            "latitude": 40.69159,
            "longitude": -73.98466
        },
        "address": {
            "countryCode": "US"
        },
        "masterChainCode": "EM",
        "lastUpdate": "2024-08-12T06:07:40"
    },
    {
        "chainCode": "AP",
        "iataCode": "NYC",
        "dupeId": 700113461,
        "name": "THE MERCER",
        "hotelId": "APNYCMER",
        "geoCode": {
            "latitude": 40.72485,
            "longitude": -73.99839
        },
        "address": {
            "countryCode": "US"
        },
        "lastUpdate": "2023-06-15T09:45:33"
    },
    {
        "chainCode": "WO",
        "iataCode": "NYC",
        "dupeId": 501932029,
        "name": "WYNDHAM MIDTOWN 45",
        "hotelId": "WONYCTAH",
        "geoCode": {
            "latitude": 40.75269,
            "longitude": -73.97244
        },
        "address": {
            "countryCode": "US"
        },
        "masterChainCode": "WR",
        "lastUpdate": "2023-06-15T11:21:06"
    },
    {
        "chainCode": "IL",
        "iataCode": "NYC",
        "dupeId": 501448097,
        "name": "MANHATTAN WEST HOTEL",
        "hotelId": "ILNYC303",
        "geoCode": {
            "latitude": 40.74976,
            "longitude": -73.99539
        },
        "address": {
            "countryCode": "US"
        },
        "lastUpdate": "2023-06-15T11:08:35"
    },
    {
        "chainCode": "HS",
        "iataCode": "NYC",
        "dupeId": 501815987,
        "name": "THE QUIN",
        "hotelId": "HSNYCAPM",
        "geoCode": {
            "latitude": 40.76438,
            "longitude": -73.97747
        },
        "address": {
            "countryCode": "US"
        },
        "lastUpdate": "2023-06-15T11:19:51"
    },
    {
        "chainCode": "GZ",
        "iataCode": "NYC",
        "dupeId": 700179273,
        "name": "BRIDGESTREET - MIDTOWN EAST",
        "hotelId": "GZNYC513",
        "geoCode": {
            "latitude": 40.63783,
            "longitude": -73.95482
        },
        "address": {
            "countryCode": "US"
        },
        "lastUpdate": "2023-06-15T10:16:59"
    },
    {
        "chainCode": "YX",
        "iataCode": "NYC",
        "dupeId": 700119671,
        "name": "ADRIA HOTEL AND CONF CTR",
        "hotelId": "YXNYCADH",
        "geoCode": {
            "latitude": 40.76169,
            "longitude": -73.76018
        },
        "address": {
            "countryCode": "US"
        },
        "lastUpdate": "2023-06-15T09:41:41"
    },
    {
        "chainCode": "PW",
        "iataCode": "NYC",
        "dupeId": 700113466,
        "name": "THE MARITIME HOTEL",
        "hotelId": "PWNYCMAR",
        "geoCode": {
            "latitude": 40.74187,
            "longitude": -74.0033
        },
        "address": {
            "countryCode": "US"
        },
        "lastUpdate": "2023-06-15T10:12:02"
    },
    {
        "chainCode": "DT",
        "iataCode": "NYC",
        "dupeId": 700113465,
        "name": "DBLTREE NEW YORK TIMES SQ SOUT",
        "hotelId": "DTNYC992",
        "geoCode": {
            "latitude": 40.75436,
            "longitude": -73.99402
        },
        "address": {
            "countryCode": "US"
        },
        "masterChainCode": "EH",
        "lastUpdate": "2023-06-15T10:07:02"
    },
    {
        "chainCode": "GI",
        "iataCode": "NYC",
        "dupeId": 700042474,
        "name": "HILTON GARDEN INN TIMES SQUARE",
        "hotelId": "GINYC790",
        "geoCode": {
            "latitude": 40.76106,
            "longitude": -73.98703
        },
        "address": {
            "countryCode": "US"
        },
        "masterChainCode": "EH",
        "lastUpdate": "2023-06-15T09:58:24"
    },
    {
        "chainCode": "BW",
        "iataCode": "NYC",
        "dupeId": 700062461,
        "name": "BEST WESTERN BAR HARBOUR INN",
        "hotelId": "BWNYC001",
        "geoCode": {
            "latitude": 40.67774,
            "longitude": -73.44889
        },
        "address": {
            "countryCode": "US"
        },
        "masterChainCode": "EW",
        "lastUpdate": "2024-04-30T18:11:11"
    },
    {
        "chainCode": "LX",
        "iataCode": "NYC",
        "dupeId": 700100289,
        "name": "HOTEL CHANDLER",
        "hotelId": "LXNYCLEM",
        "geoCode": {
            "latitude": 40.74595,
            "longitude": -73.98523
        },
        "address": {
            "countryCode": "US"
        },
        "lastUpdate": "2023-06-15T10:25:55"
    },
    {
        "chainCode": "AL",
        "iataCode": "NYC",
        "dupeId": 501447323,
        "name": "ALOFT MANHATTAN DOWNTOWN FINANCIAL DIST",
        "hotelId": "ALNYC647",
        "geoCode": {
            "latitude": 40.71041,
            "longitude": -74.00666
        },
        "address": {
            "countryCode": "US"
        },
        "masterChainCode": "EM",
        "lastUpdate": "2025-05-19T06:04:42"
    },
    {
        "chainCode": "YG",
        "iataCode": "NYC",
        "dupeId": 502135544,
        "name": "NYCZWR9 CHAIN YG",
        "hotelId": "YGNYC001",
        "geoCode": {
            "latitude": 40.70593,
            "longitude": -74.00933
        },
        "address": {
            "countryCode": "US"
        },
        "lastUpdate": "2025-06-23T07:39:43"
    },
    {
        "chainCode": "YX",
        "iataCode": "NYC",
        "dupeId": 700066538,
        "name": "HOTEL ELYSEE BY HKHOTELS",
        "hotelId": "YXNYC801",
        "geoCode": {
            "latitude": 40.76015,
            "longitude": -73.97324
        },
        "address": {
            "countryCode": "US"
        },
        "lastUpdate": "2023-06-15T10:02:53"
    },
    {
        "chainCode": "ZZ",
        "iataCode": "NYC",
        "dupeId": 502332408,
        "name": "TEST ZZNYCTTT",
        "hotelId": "ZZNYCTTT",
        "geoCode": {
            "latitude": 40.73164,
            "longitude": -73.99678
        },
        "address": {
            "countryCode": "US"
        },
        "lastUpdate": "2025-06-20T16:21:47"
    },
    {
        "chainCode": "IL",
        "iataCode": "NYC",
        "dupeId": 700179277,
        "name": "HOTEL VERITE",
        "hotelId": "ILNYC893",
        "geoCode": {
            "latitude": 40.7387,
            "longitude": -73.99048
        },
        "address": {
            "countryCode": "US"
        },
        "lastUpdate": "2023-06-15T09:41:23"
    },
    {
        "chainCode": "RA",
        "iataCode": "NYC",
        "dupeId": 700082449,
        "name": "RAMADA NEW YORK EASTSIDE",
        "hotelId": "RANYC018",
        "geoCode": {
            "latitude": 40.74398,
            "longitude": -73.9813
        },
        "address": {
            "countryCode": "US"
        },
        "masterChainCode": "WR",
        "lastUpdate": "2023-06-15T09:58:41"
    },
    {
        "chainCode": "YX",
        "iataCode": "NYC",
        "dupeId": 700180930,
        "name": "THE BOX HOUSE HOTEL-BROOKLYN",
        "hotelId": "YXNYCANV",
        "geoCode": {
            "latitude": 40.73778,
            "longitude": -73.95366
        },
        "address": {
            "countryCode": "US"
        },
        "lastUpdate": "2023-06-15T09:50:19"
    },
    {
        "chainCode": "LZ",
        "iataCode": "NYC",
        "dupeId": 700042038,
        "name": "LOEWS REGENCY HOTEL",
        "hotelId": "LZNYCREG",
        "geoCode": {
            "latitude": 40.76423,
            "longitude": -73.96875
        },
        "address": {
            "countryCode": "US"
        },
        "lastUpdate": "2023-06-15T09:57:53"
    },
    {
        "chainCode": "WV",
        "iataCode": "NYC",
        "dupeId": 700089241,
        "name": "HOTEL ON RIVINGTON",
        "hotelId": "WVNYC155",
        "geoCode": {
            "latitude": 40.71976,
            "longitude": -73.98811
        },
        "address": {
            "countryCode": "US"
        },
        "masterChainCode": "TC",
        "lastUpdate": "2023-06-15T09:42:11"
    },
    {
        "chainCode": "LE",
        "iataCode": "NYC",
        "dupeId": 700051218,
        "name": "HOTEL WALES",
        "hotelId": "LENYCWAL",
        "geoCode": {
            "latitude": 40.78476,
            "longitude": -73.95574
        },
        "address": {
            "countryCode": "US"
        },
        "masterChainCode": "PV",
        "lastUpdate": "2023-06-15T09:55:00"
    },
    {
        "chainCode": "IQ",
        "iataCode": "NYC",
        "dupeId": 501719571,
        "name": "MEADOWLAND VIEW HOTEL",
        "hotelId": "IQNYC481",
        "geoCode": {
            "latitude": 40.77442,
            "longitude": -74.04118
        },
        "address": {
            "countryCode": "US"
        },
        "lastUpdate": "2023-06-15T11:12:43"
    },
    {
        "chainCode": "XL",
        "iataCode": "NYC",
        "dupeId": 700028441,
        "name": "PARK LANE HOTEL NEW YORK",
        "hotelId": "XLNYCHPL",
        "geoCode": {
            "latitude": 40.76507,
            "longitude": -73.97521
        },
        "address": {
            "countryCode": "US"
        },
        "lastUpdate": "2023-06-15T10:20:56"
    },
    {
        "chainCode": "CY",
        "iataCode": "NYC",
        "dupeId": 700006356,
        "name": "COURTYARD MIDTOWN E MARRIOTT",
        "hotelId": "CYNYCMEC",
        "geoCode": {
            "latitude": 40.75727,
            "longitude": -73.96965
        },
        "address": {
            "countryCode": "US"
        },
        "masterChainCode": "EM",
        "lastUpdate": "2023-06-15T09:56:02"
    },
    {
        "chainCode": "FN",
        "iataCode": "NYC",
        "dupeId": 700148858,
        "name": "FAIRFIELD INN N STES MARRIOTT",
        "hotelId": "FNNYCTWF",
        "geoCode": {
            "latitude": 40.7462,
            "longitude": -73.99096
        },
        "address": {
            "countryCode": "US"
        },
        "masterChainCode": "EM",
        "lastUpdate": "2024-01-24T03:31:52"
    },
    {
        "chainCode": "UI",
        "iataCode": "NYC",
        "dupeId": 700014180,
        "name": "THE COURT-ST GILES PREMIER HOTEL",
        "hotelId": "UINYC500",
        "geoCode": {
            "latitude": 40.74954,
            "longitude": -73.97743
        },
        "address": {
            "countryCode": "US"
        },
        "lastUpdate": "2023-06-15T10:10:44"
    },
    {
        "chainCode": "AP",
        "iataCode": "NYC",
        "dupeId": 700113471,
        "name": "THE STANDARD HIGH LINE",
        "hotelId": "APNYCTSY",
        "geoCode": {
            "latitude": 40.74065,
            "longitude": -74.00776
        },
        "address": {
            "countryCode": "US"
        },
        "lastUpdate": "2023-06-15T09:57:52"
    },
    {
        "chainCode": "DI",
        "iataCode": "NYC",
        "dupeId": 501901866,
        "name": "DAYS INN WOODBURY",
        "hotelId": "DINYCEXE",
        "geoCode": {
            "latitude": 40.81481,
            "longitude": -73.47452
        },
        "address": {
            "countryCode": "US"
        },
        "masterChainCode": "WR",
        "lastUpdate": "2023-06-15T11:21:26"
    },
    {
        "chainCode": "YX",
        "iataCode": "NYC",
        "dupeId": 700100276,
        "name": "ACE HOTEL NYC",
        "hotelId": "YXNYCAHN",
        "geoCode": {
            "latitude": 40.74584,
            "longitude": -73.98811
        },
        "address": {
            "countryCode": "US"
        },
        "lastUpdate": "2023-06-15T10:03:09"
    },
    {
        "chainCode": "OM",
        "iataCode": "NYC",
        "dupeId": 502122165,
        "name": "HOTEL MIO MIO",
        "hotelId": "OMNYC002",
        "geoCode": {
            "latitude": 40.70597,
            "longitude": -74.00864
        },
        "address": {
            "countryCode": "US"
        },
        "masterChainCode": "GL",
        "lastUpdate": "2025-06-23T07:42:35"
    },
    {
        "chainCode": "RC",
        "iataCode": "NYC",
        "dupeId": 501883428,
        "name": "RESIDENCE INN WTC MARRIOTT",
        "hotelId": "RCNYCRLR",
        "geoCode": {
            "latitude": 40.70953,
            "longitude": -74.00981
        },
        "address": {
            "countryCode": "US"
        },
        "masterChainCode": "EM",
        "lastUpdate": "2024-07-29T06:08:23"
    },
    {
        "chainCode": "SB",
        "iataCode": "NYC",
        "dupeId": 700012789,
        "name": "SOFITEL NEW YORK",
        "hotelId": "SBNYCSOF",
        "geoCode": {
            "latitude": 40.75539,
            "longitude": -73.98144
        },
        "address": {
            "countryCode": "US"
        },
        "masterChainCode": "RT",
        "lastUpdate": "2023-06-15T10:17:32"
    },
    {
        "chainCode": "HY",
        "iataCode": "NYC",
        "dupeId": 700189378,
        "name": "HYATT TIMES SQUARE NEW YORK",
        "hotelId": "HYNYCTSQ",
        "geoCode": {
            "latitude": 40.75757,
            "longitude": -73.98403
        },
        "address": {
            "countryCode": "US"
        },
        "masterChainCode": "LH",
        "lastUpdate": "2023-06-15T10:35:37"
    },
    {
        "chainCode": "DH",
        "iataCode": "NYC",
        "dupeId": 700189378,
        "name": "HYATT TIMES SQUARE NEW YORK",
        "hotelId": "DHNYCATP",
        "geoCode": {
            "latitude": 40.69746,
            "longitude": -73.38496
        },
        "address": {
            "countryCode": "US"
        },
        "masterChainCode": "TC",
        "lastUpdate": "2023-06-15T11:09:39"
    },
    {
        "chainCode": "XT",
        "iataCode": "NYC",
        "dupeId": 501935185,
        "name": "CHURCHILL AT BRIDGE TOWER PLACE",
        "hotelId": "XTNYCBTP",
        "geoCode": {
            "latitude": 40.76039,
            "longitude": -73.96069
        },
        "address": {
            "countryCode": "US"
        },
        "lastUpdate": "2023-06-15T11:20:56"
    },
    {
        "chainCode": "SI",
        "iataCode": "NYC",
        "dupeId": 700142994,
        "name": "SHERATON TRIBECA NEW YORK HTL",
        "hotelId": "SINYC052",
        "geoCode": {
            "latitude": 40.72088,
            "longitude": -74.00395
        },
        "address": {
            "countryCode": "US"
        },
        "masterChainCode": "EM",
        "lastUpdate": "2025-05-26T06:04:49"
    },
    {
        "chainCode": "FN",
        "iataCode": "NYC",
        "dupeId": 700106011,
        "name": "FAIRFIELD INN LI CITY MARRIOTT",
        "hotelId": "FNNYCFQF",
        "geoCode": {
            "latitude": 40.7368,
            "longitude": -73.93564
        },
        "address": {
            "countryCode": "US"
        },
        "masterChainCode": "EM",
        "lastUpdate": "2023-06-15T10:10:58"
    },
    {
        "chainCode": "DZ",
        "iataCode": "NYC",
        "dupeId": 501912174,
        "name": "DREAM MEATPACKING DISTRICT",
        "hotelId": "DZNYCDDT",
        "geoCode": {
            "latitude": 40.74178,
            "longitude": -74.0031
        },
        "address": {
            "countryCode": "US"
        },
        "lastUpdate": "2023-06-15T11:20:44"
    },
    {
        "chainCode": "CQ",
        "iataCode": "NYC",
        "dupeId": 700190075,
        "name": "CLUB QUARTERS GRAND CENTRAL",
        "hotelId": "CQNYCCQG",
        "geoCode": {
            "latitude": 40.75321,
            "longitude": -73.97439
        },
        "address": {
            "countryCode": "US"
        },
        "lastUpdate": "2023-06-15T10:29:49"
    },
    {
        "chainCode": "MU",
        "iataCode": "NYC",
        "dupeId": 700011654,
        "name": "ONE UN NEW YORK",
        "hotelId": "MUNYCHUN",
        "geoCode": {
            "latitude": 40.74963,
            "longitude": -73.96861
        },
        "address": {
            "countryCode": "US"
        },
        "lastUpdate": "2023-06-15T09:58:24"
    },
    {
        "chainCode": "WO",
        "iataCode": "NYC",
        "dupeId": 502143575,
        "name": "TEST MASTER CHAIN WYNDHAMWO",
        "hotelId": "WONYC123",
        "geoCode": {
            "latitude": 40.64356,
            "longitude": -74.07877
        },
        "address": {
            "countryCode": "US"
        },
        "masterChainCode": "WR",
        "lastUpdate": "2025-06-23T08:04:31"
    },
    {
        "chainCode": "YX",
        "iataCode": "NYC",
        "dupeId": 700190083,
        "name": "HOTEL BOUTIQUE GRAND CENTRAL",
        "hotelId": "YXNYCBGR",
        "geoCode": {
            "latitude": 40.75298,
            "longitude": -73.97461
        },
        "address": {
            "countryCode": "US"
        },
        "lastUpdate": "2023-06-15T11:05:02"
    },
    {
        "chainCode": "SK",
        "iataCode": "NYC",
        "dupeId": 700062285,
        "name": "SIXTY SOHO",
        "hotelId": "SKNYC607",
        "geoCode": {
            "latitude": 40.72406,
            "longitude": -74.00324
        },
        "address": {
            "countryCode": "US"
        },
        "lastUpdate": "2023-06-15T11:05:56"
    },
    {
        "chainCode": "WH",
        "iataCode": "NYC",
        "dupeId": 700141702,
        "name": "W NEW YORK DOWNTOWN",
        "hotelId": "WHNYC154",
        "geoCode": {
            "latitude": 40.70914,
            "longitude": -74.01366
        },
        "address": {
            "countryCode": "US"
        },
        "masterChainCode": "EM",
        "lastUpdate": "2023-06-15T10:14:08"
    },
    {
        "chainCode": "YX",
        "iataCode": "NYC",
        "dupeId": 700157801,
        "name": "HOTEL BPM BROOKLYN NEW YORK",
        "hotelId": "YXNYCBMP",
        "geoCode": {
            "latitude": 40.65666,
            "longitude": -74.0033
        },
        "address": {
            "countryCode": "US"
        },
        "lastUpdate": "2023-06-15T10:17:17"
    },
    {
        "chainCode": "FN",
        "iataCode": "NYC",
        "dupeId": 700190081,
        "name": "FAIRFIELD INN N STES MARRIOTT",
        "hotelId": "FNNYCFMF",
        "geoCode": {
            "latitude": 40.71318,
            "longitude": -73.99299
        },
        "address": {
            "countryCode": "US"
        },
        "masterChainCode": "EM",
        "lastUpdate": "2024-03-04T06:05:14"
    },
    {
        "chainCode": "HI",
        "iataCode": "NYC",
        "dupeId": 700143967,
        "name": "HOLIDAY INN EXP NYC WALL ST",
        "hotelId": "HINYC9C1",
        "geoCode": {
            "latitude": 40.70541,
            "longitude": -74.00705
        },
        "address": {
            "countryCode": "US"
        },
        "masterChainCode": "6C",
        "lastUpdate": "2023-06-15T09:47:08"
    },
    {
        "chainCode": "NY",
        "iataCode": "NYC",
        "dupeId": 700042041,
        "name": "THE BENJAMIN HOTEL",
        "hotelId": "NYNYC105",
        "geoCode": {
            "latitude": 40.75624,
            "longitude": -73.97207
        },
        "address": {
            "countryCode": "US"
        },
        "masterChainCode": "SN",
        "lastUpdate": "2023-06-15T09:56:04"
    },
    {
        "chainCode": "XT",
        "iataCode": "NYC",
        "dupeId": 700011588,
        "name": "ROW HOTEL",
        "hotelId": "XTNYCMIL",
        "geoCode": {
            "latitude": 40.75871,
            "longitude": -73.98828
        },
        "address": {
            "countryCode": "US"
        },
        "lastUpdate": "2023-06-15T10:26:42"
    },
    {
        "chainCode": "XO",
        "iataCode": "NYC",
        "dupeId": 700056247,
        "name": "THE LONDON NYC",
        "hotelId": "XONYC151",
        "geoCode": {
            "latitude": 40.76294,
            "longitude": -73.98004
        },
        "address": {
            "countryCode": "US"
        },
        "lastUpdate": "2023-06-15T09:54:46"
    },
    {
        "chainCode": "YO",
        "iataCode": "NYC",
        "dupeId": 700101970,
        "name": "CANDLEWOOD SUITES TIME SQUARE",
        "hotelId": "YONYC73E",
        "geoCode": {
            "latitude": 40.7558,
            "longitude": -73.9923
        },
        "address": {
            "countryCode": "US"
        },
        "masterChainCode": "6C",
        "lastUpdate": "2023-06-15T10:10:28"
    },
    {
        "chainCode": "RT",
        "iataCode": "NYC",
        "dupeId": 700010554,
        "name": "NOVOTEL NEW YORK TIMES SQUARE",
        "hotelId": "RTNYCNOV",
        "geoCode": {
            "latitude": 40.76277,
            "longitude": -73.98359
        },
        "address": {
            "countryCode": "US"
        },
        "masterChainCode": "RT",
        "lastUpdate": "2023-06-15T09:58:41"
    },
    {
        "chainCode": "CI",
        "iataCode": "NYC",
        "dupeId": 700070439,
        "name": "COMFORT INN BROOKLYN",
        "hotelId": "CINYC275",
        "geoCode": {
            "latitude": 40.58376,
            "longitude": -73.93698
        },
        "address": {
            "countryCode": "US"
        },
        "masterChainCode": "EC",
        "lastUpdate": "2023-06-15T09:58:55"
    },
    {
        "chainCode": "DI",
        "iataCode": "NYC",
        "dupeId": 700006511,
        "name": "DAYS INN HOTEL NEW YORK CITY-B",
        "hotelId": "DINYC486",
        "geoCode": {
            "latitude": 40.79294,
            "longitude": -73.97181
        },
        "address": {
            "countryCode": "US"
        },
        "masterChainCode": "WR",
        "lastUpdate": "2023-06-15T09:56:03"
    },
    {
        "chainCode": "HI",
        "iataCode": "NYC",
        "dupeId": 700047608,
        "name": "HOLIDAY INN EXP MADISON SQ GARD",
        "hotelId": "HINYC5CA",
        "geoCode": {
            "latitude": 40.7483,
            "longitude": -73.9946
        },
        "address": {
            "countryCode": "US"
        },
        "masterChainCode": "6C",
        "lastUpdate": "2023-06-15T09:56:50"
    },
    {
        "chainCode": "XR",
        "iataCode": "NYC",
        "dupeId": 700013521,
        "name": "THE ST REGIS NEW YORK",
        "hotelId": "XRNYC081",
        "geoCode": {
            "latitude": 40.761,
            "longitude": -73.97539
        },
        "address": {
            "countryCode": "US"
        },
        "masterChainCode": "EM",
        "lastUpdate": "2025-05-19T06:05:42"
    },
    {
        "chainCode": "RC",
        "iataCode": "NYC",
        "dupeId": 501905390,
        "name": "RESIDENCE INN BRONX MARRIOTT",
        "hotelId": "RCNYCBXR",
        "geoCode": {
            "latitude": 40.84944,
            "longitude": -73.84269
        },
        "address": {
            "countryCode": "US"
        },
        "masterChainCode": "EM",
        "lastUpdate": "2024-01-22T19:14:07"
    },
    {
        "chainCode": "RC",
        "iataCode": "NYC",
        "dupeId": 700217610,
        "name": "RESIDENCE INN CENT PK MARRIOTT",
        "hotelId": "RCNYCPRR",
        "geoCode": {
            "latitude": 40.76435,
            "longitude": -73.9824
        },
        "address": {
            "countryCode": "US"
        },
        "masterChainCode": "EM",
        "lastUpdate": "2024-01-15T10:05:04"
    },
    {
        "chainCode": "UI",
        "iataCode": "NYC",
        "dupeId": 700013700,
        "name": "THE TRAVEL INN",
        "hotelId": "UINYC033",
        "geoCode": {
            "latitude": 40.75965,
            "longitude": -73.99664
        },
        "address": {
            "countryCode": "US"
        },
        "lastUpdate": "2023-06-15T10:29:51"
    },
    {
        "chainCode": "NG",
        "iataCode": "NYC",
        "dupeId": 501913852,
        "name": "NIGHT HOTEL TIMES SQUARE",
        "hotelId": "NGNYCSHN",
        "geoCode": {
            "latitude": 40.75932,
            "longitude": -73.98978
        },
        "address": {
            "countryCode": "US"
        },
        "lastUpdate": "2023-06-15T11:20:44"
    },
    {
        "chainCode": "HI",
        "iataCode": "NYC",
        "dupeId": 700192207,
        "name": "HOLIDAY INN STATEN ISLAND",
        "hotelId": "HINYCCEE",
        "geoCode": {
            "latitude": 40.58679,
            "longitude": -74.19096
        },
        "address": {
            "countryCode": "US"
        },
        "masterChainCode": "6C",
        "lastUpdate": "2023-06-15T11:08:02"
    },
    {
        "chainCode": "HX",
        "iataCode": "NYC",
        "dupeId": 501412004,
        "name": "HAMPTON INN MANHATTAN SEAPORT",
        "hotelId": "HXNYC320",
        "geoCode": {
            "latitude": 40.70906,
            "longitude": -74.00199
        },
        "address": {
            "countryCode": "US"
        },
        "masterChainCode": "EH",
        "lastUpdate": "2023-06-15T09:55:47"
    },
    {
        "chainCode": "LX",
        "iataCode": "NYC",
        "dupeId": 700181727,
        "name": "REFINERY HOTEL NEW YORK",
        "hotelId": "LXNYCRHO",
        "geoCode": {
            "latitude": 40.75239,
            "longitude": -73.9852
        },
        "address": {
            "countryCode": "US"
        },
        "lastUpdate": "2023-06-15T10:27:29"
    },
    {
        "chainCode": "GT",
        "iataCode": "NYC",
        "dupeId": 502178332,
        "name": "TEST GTNYCTTT",
        "hotelId": "GTNYCTTT",
        "geoCode": {
            "latitude": 40.73435,
            "longitude": -73.99482
        },
        "address": {
            "countryCode": "US"
        },
        "masterChainCode": "LI",
        "lastUpdate": "2023-06-15T10:21:42"
    },
    {
        "chainCode": "LX",
        "iataCode": "NYC",
        "dupeId": 700211419,
        "name": "WESTHOUSE HOTEL NEW YORK",
        "hotelId": "LXNYCWHH",
        "geoCode": {
            "latitude": 40.76433,
            "longitude": -73.98111
        },
        "address": {
            "countryCode": "US"
        },
        "lastUpdate": "2023-06-15T10:39:48"
    },
    {
        "chainCode": "UZ",
        "iataCode": "NYC",
        "dupeId": 700011950,
        "name": "RIVERSIDE TOWER HOTEL",
        "hotelId": "UZNYCRIV",
        "geoCode": {
            "latitude": 40.78555,
            "longitude": -73.98195
        },
        "address": {
            "countryCode": "US"
        },
        "lastUpdate": "2023-06-15T09:54:46"
    },
    {
        "chainCode": "CY",
        "iataCode": "NYC",
        "dupeId": 501233488,
        "name": "COURTYARD CHELSEA MARRIOTT",
        "hotelId": "CYNYCCEC",
        "geoCode": {
            "latitude": 40.74819,
            "longitude": -73.9912
        },
        "address": {
            "countryCode": "US"
        },
        "masterChainCode": "EM",
        "lastUpdate": "2024-08-26T06:04:15"
    },
    {
        "chainCode": "FN",
        "iataCode": "NYC",
        "dupeId": 700176205,
        "name": "FAIRFIELD INN N STES MARRIOTT",
        "hotelId": "FNNYCQNF",
        "geoCode": {
            "latitude": 40.75153,
            "longitude": -73.93566
        },
        "address": {
            "countryCode": "US"
        },
        "masterChainCode": "EM",
        "lastUpdate": "2023-06-15T09:43:43"
    },
    {
        "chainCode": "ZK",
        "iataCode": "NYC",
        "dupeId": 502135543,
        "name": "NYCZWR9 CHAIN ZK",
        "hotelId": "ZKNYC001",
        "geoCode": {
            "latitude": 40.70593,
            "longitude": -74.00933
        },
        "address": {
            "countryCode": "US"
        },
        "lastUpdate": "2025-06-23T07:39:11"
    },
    {
        "chainCode": "NZ",
        "iataCode": "NYC",
        "dupeId": 700099317,
        "name": "GEM HOTEL CHELSEA AN ASCEND COLLECTION",
        "hotelId": "NZNYC426",
        "geoCode": {
            "latitude": 40.74466,
            "longitude": -73.99916
        },
        "address": {
            "countryCode": "US"
        },
        "masterChainCode": "EC",
        "lastUpdate": "2023-06-15T10:06:32"
    },
    {
        "chainCode": "NY",
        "iataCode": "NYC",
        "dupeId": 700012891,
        "name": "MANHATTAN NYC AN AFFINIA HOTEL",
        "hotelId": "NYNYC600",
        "geoCode": {
            "latitude": 40.74868,
            "longitude": -73.99204
        },
        "address": {
            "countryCode": "US"
        },
        "masterChainCode": "SN",
        "lastUpdate": "2023-06-15T09:55:17"
    },
    {
        "chainCode": "CI",
        "iataCode": "NYC",
        "dupeId": 700179532,
        "name": "COMFORT INN NEAR FINANCIAL DISTRICT",
        "hotelId": "CINYC551",
        "geoCode": {
            "latitude": 40.71222,
            "longitude": -73.99269
        },
        "address": {
            "countryCode": "US"
        },
        "masterChainCode": "EC",
        "lastUpdate": "2023-06-15T11:05:43"
    },
    {
        "chainCode": "YX",
        "iataCode": "NYC",
        "dupeId": 700007659,
        "name": "THE EVELYN FORMERLY GERSHWIN",
        "hotelId": "YXNYCGER",
        "geoCode": {
            "latitude": 40.74387,
            "longitude": -73.9873
        },
        "address": {
            "countryCode": "US"
        },
        "lastUpdate": "2023-06-15T10:05:30"
    },
    {
        "chainCode": "LE",
        "iataCode": "NYC",
        "dupeId": 700006312,
        "name": "COSMOPOLITAN HOTEL - TRIBECA",
        "hotelId": "LENYC7A3",
        "geoCode": {
            "latitude": 40.71569,
            "longitude": -74.00933
        },
        "address": {
            "countryCode": "US"
        },
        "masterChainCode": "PV",
        "lastUpdate": "2023-06-15T09:55:00"
    },
    {
        "chainCode": "WV",
        "iataCode": "NYC",
        "dupeId": 700064128,
        "name": "THE ANDREW HOTEL",
        "hotelId": "WVNYC281",
        "geoCode": {
            "latitude": 40.78802,
            "longitude": -73.72539
        },
        "address": {
            "countryCode": "US"
        },
        "masterChainCode": "TC",
        "lastUpdate": "2023-06-15T09:58:41"
    },
    {
        "chainCode": "RZ",
        "iataCode": "NYC",
        "dupeId": 700017968,
        "name": "THE RITZ-CARLTON CENTRAL PARK",
        "hotelId": "RZNYCCPZ",
        "geoCode": {
            "latitude": 40.7673,
            "longitude": -73.98009
        },
        "address": {
            "countryCode": "US"
        },
        "masterChainCode": "EM",
        "lastUpdate": "2025-06-09T06:02:49"
    },
    {
        "chainCode": "KC",
        "iataCode": "NYC",
        "dupeId": 700055655,
        "name": "INK48  A KIMPTON HOTEL",
        "hotelId": "KCNYC485",
        "geoCode": {
            "latitude": 40.76453,
            "longitude": -73.99592
        },
        "address": {
            "countryCode": "US"
        },
        "masterChainCode": "6C",
        "lastUpdate": "2023-06-15T10:10:27"
    },
    {
        "chainCode": "YX",
        "iataCode": "NYC",
        "dupeId": 700179281,
        "name": "SAINT MARKS PLACE STUDIOS",
        "hotelId": "YXNYCSMP",
        "geoCode": {
            "latitude": 40.72899,
            "longitude": -73.98923
        },
        "address": {
            "countryCode": "US"
        },
        "lastUpdate": "2023-06-15T10:19:07"
    },
    {
        "chainCode": "MC",
        "iataCode": "NYC",
        "dupeId": 700007177,
        "name": "JW MARRIOTT ESSEX HOUSE",
        "hotelId": "MCNYCEXM",
        "geoCode": {
            "latitude": 40.76545,
            "longitude": -73.97671
        },
        "address": {
            "countryCode": "US"
        },
        "masterChainCode": "EM",
        "lastUpdate": "2024-07-29T06:05:13"
    },
    {
        "chainCode": "RA",
        "iataCode": "NYC",
        "dupeId": 700115056,
        "name": "RAMADA ROCHELLE PARK NEAR PARA",
        "hotelId": "RANYC742",
        "geoCode": {
            "latitude": 40.91858,
            "longitude": -74.0849
        },
        "address": {
            "countryCode": "US"
        },
        "masterChainCode": "WR",
        "lastUpdate": "2023-06-15T09:56:04"
    },
    {
        "chainCode": "WW",
        "iataCode": "NYC",
        "dupeId": 700013322,
        "name": "THE EMPIRE HOTEL",
        "hotelId": "WWNYC350",
        "geoCode": {
            "latitude": 40.77145,
            "longitude": -73.98229
        },
        "address": {
            "countryCode": "US"
        },
        "masterChainCode": "EW",
        "lastUpdate": "2023-06-15T10:14:08"
    },
    {
        "chainCode": "VP",
        "iataCode": "NYC",
        "dupeId": 502373627,
        "name": "VP TEST HOTEL",
        "hotelId": "VPNYC9OP",
        "geoCode": {
            "latitude": 0,
            "longitude": 0
        },
        "address": {
            "countryCode": "US"
        },
        "lastUpdate": "2025-01-29T10:10:10"
    },
    {
        "chainCode": "XT",
        "iataCode": "NYC",
        "dupeId": 501821196,
        "name": "CHURCHILL AT HIGHLANDS AT WESTWOOD",
        "hotelId": "XTNYCCHW",
        "geoCode": {
            "latitude": 40.98554,
            "longitude": -74.0194
        },
        "address": {
            "countryCode": "US"
        },
        "lastUpdate": "2023-06-15T11:14:30"
    },
    {
        "chainCode": "NY",
        "iataCode": "NYC",
        "dupeId": 700143996,
        "name": "THE JAMES NEW YORK",
        "hotelId": "NYNYCTJA",
        "geoCode": {
            "latitude": 40.719,
            "longitude": -73.99646
        },
        "address": {
            "countryCode": "US"
        },
        "masterChainCode": "SN",
        "lastUpdate": "2023-06-15T10:19:05"
    },
    {
        "chainCode": "HH",
        "iataCode": "NYC",
        "dupeId": 700131562,
        "name": "HILTON NEW YORK FASHION DISTRICT",
        "hotelId": "HHNYC026",
        "geoCode": {
            "latitude": 40.74543,
            "longitude": -73.99294
        },
        "address": {
            "countryCode": "US"
        },
        "masterChainCode": "EH",
        "lastUpdate": "2023-06-15T09:45:50"
    },
    {
        "chainCode": "SK",
        "iataCode": "NYC",
        "dupeId": 501400790,
        "name": "6 COLUMBUS A SIXTY HOTEL",
        "hotelId": "SKNYCWPK",
        "geoCode": {
            "latitude": 40.76749,
            "longitude": -73.9832
        },
        "address": {
            "countryCode": "US"
        },
        "lastUpdate": "2023-06-15T11:07:32"
    },
    {
        "chainCode": "YX",
        "iataCode": "NYC",
        "dupeId": 700217002,
        "name": "THE PARC HOTEL",
        "hotelId": "YXNYCTPH",
        "geoCode": {
            "latitude": 40.76113,
            "longitude": -73.83524
        },
        "address": {
            "countryCode": "US"
        },
        "lastUpdate": "2023-06-15T11:06:39"
    },
    {
        "chainCode": "BR",
        "iataCode": "NYC",
        "dupeId": 700011764,
        "name": "RENAISSANCE TIMES SQUARE HOTEL",
        "hotelId": "BRNYCRTB",
        "geoCode": {
            "latitude": 40.75818,
            "longitude": -73.98558
        },
        "address": {
            "countryCode": "US"
        },
        "masterChainCode": "EM",
        "lastUpdate": "2024-01-15T06:17:12"
    },
    {
        "chainCode": "CY",
        "iataCode": "NYC",
        "dupeId": 700149692,
        "name": "COURTYARD SOHO MARRIOTT",
        "hotelId": "CYNYCMTC",
        "geoCode": {
            "latitude": 40.72758,
            "longitude": -74.00548
        },
        "address": {
            "countryCode": "US"
        },
        "masterChainCode": "EM",
        "lastUpdate": "2024-03-25T06:17:56"
    },
    {
        "chainCode": "DZ",
        "iataCode": "NYC",
        "dupeId": 502060429,
        "name": "DREAM SOUTH BEACH",
        "hotelId": "DZNYCDRE",
        "geoCode": {
            "latitude": 40.76446,
            "longitude": -73.98166
        },
        "address": {
            "countryCode": "US"
        },
        "lastUpdate": "2023-06-15T11:21:59"
    },
    {
        "chainCode": "HS",
        "iataCode": "NYC",
        "dupeId": 501815991,
        "name": "EXECUTIVE CLUB AT WEST PARK",
        "hotelId": "HSNYCAQA",
        "geoCode": {
            "latitude": 40.76773,
            "longitude": -73.98316
        },
        "address": {
            "countryCode": "US"
        },
        "lastUpdate": "2023-06-15T11:16:16"
    },
    {
        "chainCode": "LE",
        "iataCode": "NYC",
        "dupeId": 700044239,
        "name": "DYLAN HOTEL",
        "hotelId": "LENYCDYL",
        "geoCode": {
            "latitude": 40.75166,
            "longitude": -73.97937
        },
        "address": {
            "countryCode": "US"
        },
        "masterChainCode": "PV",
        "lastUpdate": "2023-06-15T09:58:56"
    },
    {
        "chainCode": "WA",
        "iataCode": "NYC",
        "dupeId": 700155425,
        "name": "TOWERS OF THE WALDORF ASTORIA",
        "hotelId": "WANYC215",
        "geoCode": {
            "latitude": 40.7571,
            "longitude": -73.9739
        },
        "address": {
            "countryCode": "US"
        },
        "masterChainCode": "EH",
        "lastUpdate": "2023-06-15T09:58:25"
    },
    {
        "chainCode": "HX",
        "iataCode": "NYC",
        "dupeId": 700008447,
        "name": "HAMPTON INN MANHATTAN TIMES SQ",
        "hotelId": "HXNYC851",
        "geoCode": {
            "latitude": 40.76297,
            "longitude": -73.98566
        },
        "address": {
            "countryCode": "US"
        },
        "masterChainCode": "EH",
        "lastUpdate": "2023-06-15T09:58:40"
    },
    {
        "chainCode": "BW",
        "iataCode": "NYC",
        "dupeId": 700190074,
        "name": "BEST WESTERN PREMIER HERALD SQ",
        "hotelId": "BWNYC152",
        "geoCode": {
            "latitude": 40.75036,
            "longitude": -73.98526
        },
        "address": {
            "countryCode": "US"
        },
        "masterChainCode": "EW",
        "lastUpdate": "2024-02-28T09:15:09"
    },
    {
        "chainCode": "UZ",
        "iataCode": "NYC",
        "dupeId": 700179275,
        "name": "EXECUSTAY AT AURORA MIDTOWN E.",
        "hotelId": "UZNYCAE1",
        "geoCode": {
            "latitude": 40.74749,
            "longitude": -73.97691
        },
        "address": {
            "countryCode": "US"
        },
        "lastUpdate": "2023-06-15T10:23:33"
    },
    {
        "chainCode": "PH",
        "iataCode": "NYC",
        "dupeId": 501950060,
        "name": "AKA TIMES SQUARE",
        "hotelId": "PHNYCATS",
        "geoCode": {
            "latitude": 40.75679,
            "longitude": -73.98412
        },
        "address": {
            "countryCode": "US"
        },
        "masterChainCode": "PV",
        "lastUpdate": "2023-06-15T11:21:18"
    },
    {
        "chainCode": "WV",
        "iataCode": "NYC",
        "dupeId": 700141907,
        "name": "THE NOLITAN",
        "hotelId": "WVNYCNHO",
        "geoCode": {
            "latitude": 40.72066,
            "longitude": -73.99521
        },
        "address": {
            "countryCode": "US"
        },
        "masterChainCode": "TC",
        "lastUpdate": "2023-06-15T10:10:59"
    },
    {
        "chainCode": "XT",
        "iataCode": "NYC",
        "dupeId": 501820228,
        "name": "CHURCHILL AT SYMPHONY HOUSE",
        "hotelId": "XTNYCCSH",
        "geoCode": {
            "latitude": 40.76601,
            "longitude": -73.9828
        },
        "address": {
            "countryCode": "US"
        },
        "lastUpdate": "2023-06-15T11:13:48"
    },
    {
        "chainCode": "XT",
        "iataCode": "NYC",
        "dupeId": 501820236,
        "name": "CHURCHILL AT 90 WASHINGTON STREET",
        "hotelId": "XTNYCC90",
        "geoCode": {
            "latitude": 40.70806,
            "longitude": -74.01485
        },
        "address": {
            "countryCode": "US"
        },
        "lastUpdate": "2023-06-15T11:16:49"
    },
    {
        "chainCode": "IQ",
        "iataCode": "NYC",
        "dupeId": 700082450,
        "name": "THE NEW YORK MAHATTAN HOTEL",
        "hotelId": "IQNYC605",
        "geoCode": {
            "latitude": 40.74727,
            "longitude": -73.98636
        },
        "address": {
            "countryCode": "US"
        },
        "lastUpdate": "2023-06-15T09:52:07"
    },
    {
        "chainCode": "CY",
        "iataCode": "NYC",
        "dupeId": 700101726,
        "name": "COURTYARD FIFTH AVE MARRIOTT",
        "hotelId": "CYNYCESC",
        "geoCode": {
            "latitude": 40.75209,
            "longitude": -73.98108
        },
        "address": {
            "countryCode": "US"
        },
        "masterChainCode": "EM",
        "lastUpdate": "2024-01-23T03:08:07"
    },
    {
        "chainCode": "HI",
        "iataCode": "NYC",
        "dupeId": 700184444,
        "name": "HOLIDAY INN EXP MIDTOWN WEST",
        "hotelId": "HINYC9B2",
        "geoCode": {
            "latitude": 40.76386,
            "longitude": -73.99387
        },
        "address": {
            "countryCode": "US"
        },
        "masterChainCode": "6C",
        "lastUpdate": "2023-06-15T09:53:10"
    },
    {
        "chainCode": "FN",
        "iataCode": "NYC",
        "dupeId": 700105804,
        "name": "FAIRFIELD INN SPRING MARRIOTT",
        "hotelId": "FNNYCSVF",
        "geoCode": {
            "latitude": 41.10472,
            "longitude": -74.02928
        },
        "address": {
            "countryCode": "US"
        },
        "masterChainCode": "EM",
        "lastUpdate": "2023-06-15T09:55:31"
    },
    {
        "chainCode": "WY",
        "iataCode": "NYC",
        "dupeId": 700152556,
        "name": "WYNDHAM GARDEN LIC MANHATTAN V",
        "hotelId": "WYNYC996",
        "geoCode": {
            "latitude": 40.75016,
            "longitude": -73.95162
        },
        "address": {
            "countryCode": "US"
        },
        "masterChainCode": "WR",
        "lastUpdate": "2023-06-15T09:47:10"
    },
    {
        "chainCode": "SI",
        "iataCode": "NYC",
        "dupeId": 700141751,
        "name": "SHERATON BROOKLYN NEW YORK HTL",
        "hotelId": "SINYC727",
        "geoCode": {
            "latitude": 40.6916,
            "longitude": -73.98438
        },
        "address": {
            "countryCode": "US"
        },
        "masterChainCode": "EM",
        "lastUpdate": "2024-01-23T21:00:37"
    },
    {
        "chainCode": "MC",
        "iataCode": "NYC",
        "dupeId": 700068965,
        "name": "LONG ISLAND MARRIOTT",
        "hotelId": "MCNYCLIM",
        "geoCode": {
            "latitude": 40.7212,
            "longitude": -73.5836
        },
        "address": {
            "countryCode": "US"
        },
        "masterChainCode": "EM",
        "lastUpdate": "2024-01-23T22:34:53"
    },
    {
        "chainCode": "MR",
        "iataCode": "NYC",
        "dupeId": 700008456,
        "name": "HUDSON A MORGANS ORIGINAL",
        "hotelId": "MRNYCHUD",
        "geoCode": {
            "latitude": 40.768,
            "longitude": -73.98408
        },
        "address": {
            "countryCode": "US"
        },
        "lastUpdate": "2023-06-15T09:55:17"
    },
    {
        "chainCode": "UI",
        "iataCode": "NYC",
        "dupeId": 700003312,
        "name": "WELLINGTON HOTEL",
        "hotelId": "UINYCWEL",
        "geoCode": {
            "latitude": 40.76451,
            "longitude": -73.98077
        },
        "address": {
            "countryCode": "US"
        },
        "lastUpdate": "2023-06-15T09:55:33"
    },
    {
        "chainCode": "NY",
        "iataCode": "NYC",
        "dupeId": 700023346,
        "name": "THE SURREY HOTEL",
        "hotelId": "NYNYC700",
        "geoCode": {
            "latitude": 40.7746,
            "longitude": -73.96454
        },
        "address": {
            "countryCode": "US"
        },
        "masterChainCode": "SN",
        "lastUpdate": "2023-06-15T09:58:24"
    },
    {
        "chainCode": "LX",
        "iataCode": "NYC",
        "dupeId": 700045669,
        "name": "THE IROQUOIS NEW YORK",
        "hotelId": "LXNYC858",
        "geoCode": {
            "latitude": 40.75545,
            "longitude": -73.98152
        },
        "address": {
            "countryCode": "US"
        },
        "lastUpdate": "2023-06-15T09:56:19"
    },
    {
        "chainCode": "YX",
        "iataCode": "NYC",
        "dupeId": 700064066,
        "name": "CASABLANCA HOTEL",
        "hotelId": "YXNYCCAS",
        "geoCode": {
            "latitude": 40.75652,
            "longitude": -73.98546
        },
        "address": {
            "countryCode": "US"
        },
        "lastUpdate": "2023-06-15T09:57:08"
    },
    {
        "chainCode": "BW",
        "iataCode": "NYC",
        "dupeId": 700129877,
        "name": "BEST WESTERN PLAZA HOTEL",
        "hotelId": "BWNYC143",
        "geoCode": {
            "latitude": 40.75607,
            "longitude": -73.94047
        },
        "address": {
            "countryCode": "US"
        },
        "masterChainCode": "EW",
        "lastUpdate": "2023-06-15T10:12:47"
    },
    {
        "chainCode": "BW",
        "iataCode": "NYC",
        "dupeId": 700101306,
        "name": "BEST WESTERN BAYSIDE INN",
        "hotelId": "BWNYC157",
        "geoCode": {
            "latitude": 40.76167,
            "longitude": -73.76069
        },
        "address": {
            "countryCode": "US"
        },
        "masterChainCode": "EW",
        "lastUpdate": "2025-01-07T12:01:24"
    },
    {
        "chainCode": "FN",
        "iataCode": "NYC",
        "dupeId": 700222829,
        "name": "FAIRFIELD INN FINANCL MARRIOTT",
        "hotelId": "FNNYCLMF",
        "geoCode": {
            "latitude": 40.70604,
            "longitude": -74.00502
        },
        "address": {
            "countryCode": "US"
        },
        "masterChainCode": "EM",
        "lastUpdate": "2025-05-26T06:02:14"
    },
    {
        "chainCode": "WW",
        "iataCode": "NYC",
        "dupeId": 700027091,
        "name": "THE MODERNE",
        "hotelId": "WWNYC400",
        "geoCode": {
            "latitude": 40.76482,
            "longitude": -73.98238
        },
        "address": {
            "countryCode": "US"
        },
        "masterChainCode": "EW",
        "lastUpdate": "2023-06-15T09:55:02"
    },
    {
        "chainCode": "WY",
        "iataCode": "NYC",
        "dupeId": 700032210,
        "name": "WYNDHAM MIDTOWN 45",
        "hotelId": "WYNYCTAH",
        "geoCode": {
            "latitude": 40.75269,
            "longitude": -73.97244
        },
        "address": {
            "countryCode": "US"
        },
        "masterChainCode": "WR",
        "lastUpdate": "2023-06-15T10:30:22"
    },
    {
        "chainCode": "YX",
        "iataCode": "NYC",
        "dupeId": 700189401,
        "name": "VICEROY NEW YORK",
        "hotelId": "YXNYCVNY",
        "geoCode": {
            "latitude": 40.76455,
            "longitude": -73.97848
        },
        "address": {
            "countryCode": "US"
        },
        "lastUpdate": "2023-06-15T10:30:07"
    },
    {
        "chainCode": "WI",
        "iataCode": "NYC",
        "dupeId": 700018234,
        "name": "WESTIN NEW YORK AT TIMES SQUARE",
        "hotelId": "WINYC380",
        "geoCode": {
            "latitude": 40.7575,
            "longitude": -73.9894
        },
        "address": {
            "countryCode": "US"
        },
        "masterChainCode": "EM",
        "lastUpdate": "2025-06-09T06:07:38"
    },
    {
        "chainCode": "BW",
        "iataCode": "NYC",
        "dupeId": 700101379,
        "name": "BEST WESTERN BOWERY HANBEE HTL",
        "hotelId": "BWNYC133",
        "geoCode": {
            "latitude": 40.7184,
            "longitude": -73.99518
        },
        "address": {
            "countryCode": "US"
        },
        "masterChainCode": "EW",
        "lastUpdate": "2023-06-15T10:06:46"
    },
    {
        "chainCode": "NY",
        "iataCode": "NYC",
        "dupeId": 700013518,
        "name": "THE SHOREHAM",
        "hotelId": "NYNYCSHO",
        "geoCode": {
            "latitude": 40.76252,
            "longitude": -73.97635
        },
        "address": {
            "countryCode": "US"
        },
        "masterChainCode": "SN",
        "lastUpdate": "2023-06-15T09:58:40"
    },
    {
        "chainCode": "YX",
        "iataCode": "NYC",
        "dupeId": 700064001,
        "name": "BROADWAY PLAZA HOTEL",
        "hotelId": "YXNYCBPH",
        "geoCode": {
            "latitude": 40.74445,
            "longitude": -73.98916
        },
        "address": {
            "countryCode": "US"
        },
        "lastUpdate": "2023-06-15T11:06:28"
    },
    {
        "chainCode": "OM",
        "iataCode": "NYC",
        "dupeId": 700042039,
        "name": "OMNI BERKSHIRE PLACE",
        "hotelId": "OMNYC509",
        "geoCode": {
            "latitude": 40.75983,
            "longitude": -73.97521
        },
        "address": {
            "countryCode": "US"
        },
        "masterChainCode": "GL",
        "lastUpdate": "2023-06-15T09:56:19"
    },
    {
        "chainCode": "CI",
        "iataCode": "NYC",
        "dupeId": 700190077,
        "name": "COMFORT INN MIDTOWN WEST",
        "hotelId": "CINYC548",
        "geoCode": {
            "latitude": 40.76413,
            "longitude": -73.99496
        },
        "address": {
            "countryCode": "US"
        },
        "masterChainCode": "EC",
        "lastUpdate": "2023-06-15T10:24:51"
    },
    {
        "chainCode": "HI",
        "iataCode": "NYC",
        "dupeId": 700107506,
        "name": "HOLIDAY INN EXP TIMES SQUARE",
        "hotelId": "HINYC2A5",
        "geoCode": {
            "latitude": 40.75634,
            "longitude": -73.9931
        },
        "address": {
            "countryCode": "US"
        },
        "masterChainCode": "6C",
        "lastUpdate": "2023-06-15T10:09:55"
    },
    {
        "chainCode": "CI",
        "iataCode": "NYC",
        "dupeId": 501935372,
        "name": "COMFORT INN SYOSSET",
        "hotelId": "CINYC311",
        "geoCode": {
            "latitude": 40.80838,
            "longitude": -73.51591
        },
        "address": {
            "countryCode": "US"
        },
        "masterChainCode": "EC",
        "lastUpdate": "2023-06-15T11:20:54"
    },
    {
        "chainCode": "GG",
        "iataCode": "NYC",
        "dupeId": 700021808,
        "name": "SOHO GRAND HOTEL",
        "hotelId": "GGNYCSGH",
        "geoCode": {
            "latitude": 40.7217,
            "longitude": -74.00445
        },
        "address": {
            "countryCode": "US"
        },
        "lastUpdate": "2023-06-15T09:54:44"
    },
    {
        "chainCode": "WV",
        "iataCode": "NYC",
        "dupeId": 700107955,
        "name": "HOTEL 91",
        "hotelId": "WVNYC836",
        "geoCode": {
            "latitude": 40.7134,
            "longitude": -73.99361
        },
        "address": {
            "countryCode": "US"
        },
        "masterChainCode": "TC",
        "lastUpdate": "2023-06-15T11:15:46"
    },
    {
        "chainCode": "WV",
        "iataCode": "NYC",
        "dupeId": 700224946,
        "name": "THE LUDLOW HOTEL",
        "hotelId": "WVNYC132",
        "geoCode": {
            "latitude": 40.72176,
            "longitude": -73.98721
        },
        "address": {
            "countryCode": "US"
        },
        "masterChainCode": "TC",
        "lastUpdate": "2023-06-15T10:04:27"
    },
    {
        "chainCode": "GZ",
        "iataCode": "NYC",
        "dupeId": 700151693,
        "name": "HOTEL MULBERRY",
        "hotelId": "GZNYC633",
        "geoCode": {
            "latitude": 40.77772,
            "longitude": -73.9826
        },
        "address": {
            "countryCode": "US"
        },
        "lastUpdate": "2023-06-15T10:29:02"
    },
    {
        "chainCode": "YX",
        "iataCode": "NYC",
        "dupeId": 700011993,
        "name": "THE ROGER",
        "hotelId": "YXNYCROG",
        "geoCode": {
            "latitude": 40.7458,
            "longitude": -73.98433
        },
        "address": {
            "countryCode": "US"
        },
        "lastUpdate": "2023-06-15T09:55:02"
    },
    {
        "chainCode": "IL",
        "iataCode": "NYC",
        "dupeId": 700054600,
        "name": "THE MANHATTAN CLUB",
        "hotelId": "ILNYC720",
        "geoCode": {
            "latitude": 40.76456,
            "longitude": -73.98129
        },
        "address": {
            "countryCode": "US"
        },
        "lastUpdate": "2023-06-15T10:30:37"
    },
    {
        "chainCode": "HH",
        "iataCode": "NYC",
        "dupeId": 700008172,
        "name": "HILTON TIMES SQUARE",
        "hotelId": "HHNYC234",
        "geoCode": {
            "latitude": 40.75624,
            "longitude": -73.98808
        },
        "address": {
            "countryCode": "US"
        },
        "masterChainCode": "EH",
        "lastUpdate": "2023-06-15T09:56:50"
    },
    {
        "chainCode": "HX",
        "iataCode": "NYC",
        "dupeId": 700181772,
        "name": "HAMPTON INN MANHATTAN UNITED NATIONS",
        "hotelId": "HXNYC897",
        "geoCode": {
            "latitude": 40.75095,
            "longitude": -73.97217
        },
        "address": {
            "countryCode": "US"
        },
        "masterChainCode": "EH",
        "lastUpdate": "2023-06-15T10:24:52"
    },
    {
        "chainCode": "MD",
        "iataCode": "NYC",
        "dupeId": 700009384,
        "name": "LE PARKER MERIDIEN NEW YORK",
        "hotelId": "MDNYCMER",
        "geoCode": {
            "latitude": 40.76386,
            "longitude": -73.97821
        },
        "address": {
            "countryCode": "US"
        },
        "masterChainCode": "EM",
        "lastUpdate": "2023-06-15T09:56:19"
    },
    {
        "chainCode": "HX",
        "iataCode": "NYC",
        "dupeId": 700106730,
        "name": "HAMPTON INN NANUET",
        "hotelId": "HXNYC260",
        "geoCode": {
            "latitude": 41.10029,
            "longitude": -74.02244
        },
        "address": {
            "countryCode": "US"
        },
        "masterChainCode": "EH",
        "lastUpdate": "2023-06-15T09:58:40"
    },
    {
        "chainCode": "GZ",
        "iataCode": "NYC",
        "dupeId": 700005111,
        "name": "HOTEL BEACON",
        "hotelId": "GZNYC222",
        "geoCode": {
            "latitude": 40.77772,
            "longitude": -73.9826
        },
        "address": {
            "countryCode": "US"
        },
        "lastUpdate": "2023-06-15T09:56:50"
    },
    {
        "chainCode": "NZ",
        "iataCode": "NYC",
        "dupeId": 501671976,
        "name": "THE PAUL AN ASCEND HOTEL COLLECTION",
        "hotelId": "NZNYC501",
        "geoCode": {
            "latitude": 40.74602,
            "longitude": -73.98918
        },
        "address": {
            "countryCode": "US"
        },
        "masterChainCode": "EC",
        "lastUpdate": "2023-06-15T11:11:39"
    },
    {
        "chainCode": "LW",
        "iataCode": "NYC",
        "dupeId": 700113468,
        "name": "THE GREENWICH HOTEL",
        "hotelId": "LWNYC730",
        "geoCode": {
            "latitude": 40.71985,
            "longitude": -74.01022
        },
        "address": {
            "countryCode": "US"
        },
        "lastUpdate": "2023-06-15T10:12:33"
    },
    {
        "chainCode": "EO",
        "iataCode": "NYC",
        "dupeId": 700051059,
        "name": "ECONO LODGE TIMES SQUARE",
        "hotelId": "EONYC318",
        "geoCode": {
            "latitude": 40.76046,
            "longitude": -73.98754
        },
        "address": {
            "countryCode": "US"
        },
        "masterChainCode": "EC",
        "lastUpdate": "2023-06-15T09:56:03"
    },
    {
        "chainCode": "DT",
        "iataCode": "NYC",
        "dupeId": 700146224,
        "name": "DOUBLETREE BY HILTON NYC FINANCIAL",
        "hotelId": "DTNYC917",
        "geoCode": {
            "latitude": 40.70405,
            "longitude": -74.01259
        },
        "address": {
            "countryCode": "US"
        },
        "masterChainCode": "EH",
        "lastUpdate": "2023-06-15T10:19:21"
    },
    {
        "chainCode": "FS",
        "iataCode": "NYC",
        "dupeId": 700007509,
        "name": "FOUR SEASONS NEW YORK",
        "hotelId": "FSNYC633",
        "geoCode": {
            "latitude": 40.76204,
            "longitude": -73.97177
        },
        "address": {
            "countryCode": "US"
        },
        "lastUpdate": "2023-06-15T09:55:47"
    },
    {
        "chainCode": "BW",
        "iataCode": "NYC",
        "dupeId": 700062665,
        "name": "BEST WESTERN CONVENTION CENTER HOTEL",
        "hotelId": "BWNYC112",
        "geoCode": {
            "latitude": 40.75742,
            "longitude": -73.99842
        },
        "address": {
            "countryCode": "US"
        },
        "masterChainCode": "EW",
        "lastUpdate": "2023-06-15T09:58:23"
    },
    {
        "chainCode": "KC",
        "iataCode": "NYC",
        "dupeId": 700141239,
        "name": "EVENTI  A KIMPTON HOTEL",
        "hotelId": "KCNYC567",
        "geoCode": {
            "latitude": 40.74716,
            "longitude": -73.9899
        },
        "address": {
            "countryCode": "US"
        },
        "masterChainCode": "6C",
        "lastUpdate": "2023-06-15T10:18:02"
    },
    {
        "chainCode": "TM",
        "iataCode": "NYC",
        "dupeId": 700018235,
        "name": "GILD HALL - A THOMPSON HOTEL",
        "hotelId": "TMNYCC8F",
        "geoCode": {
            "latitude": 40.70788,
            "longitude": -74.00712
        },
        "address": {
            "countryCode": "US"
        },
        "lastUpdate": "2023-06-15T10:36:56"
    },
    {
        "chainCode": "UZ",
        "iataCode": "NYC",
        "dupeId": 700148953,
        "name": "CORONA HOTEL",
        "hotelId": "UZNYC113",
        "geoCode": {
            "latitude": 40.75254,
            "longitude": -73.85266
        },
        "address": {
            "countryCode": "US"
        },
        "lastUpdate": "2023-06-15T09:52:09"
    },
    {
        "chainCode": "YX",
        "iataCode": "NYC",
        "dupeId": 700062282,
        "name": "HOTEL 31",
        "hotelId": "YXNYC068",
        "geoCode": {
            "latitude": 40.74469,
            "longitude": -73.98161
        },
        "address": {
            "countryCode": "US"
        },
        "lastUpdate": "2023-06-15T09:58:57"
    },
    {
        "chainCode": "SI",
        "iataCode": "NYC",
        "dupeId": 700012629,
        "name": "SHERATON NY TIMES SQUARE",
        "hotelId": "SINYC421",
        "geoCode": {
            "latitude": 39.07277,
            "longitude": -94.58526
        },
        "address": {
            "countryCode": "US"
        },
        "masterChainCode": "EM",
        "lastUpdate": "2025-06-02T06:03:36"
    },
    {
        "chainCode": "XV",
        "iataCode": "NYC",
        "dupeId": 700190085,
        "name": "SPRINGHILL STES MIDTN MARRIOTT",
        "hotelId": "XVNYCSMS",
        "geoCode": {
            "latitude": 40.75119,
            "longitude": -73.9846
        },
        "address": {
            "countryCode": "US"
        },
        "masterChainCode": "EM",
        "lastUpdate": "2024-01-23T00:03:12"
    },
    {
        "chainCode": "YX",
        "iataCode": "NYC",
        "dupeId": 700070986,
        "name": "MORNINGSIDE INN",
        "hotelId": "YXNYCMIN",
        "geoCode": {
            "latitude": 40.80192,
            "longitude": -73.96656
        },
        "address": {
            "countryCode": "US"
        },
        "lastUpdate": "2023-06-15T09:50:34"
    },
    {
        "chainCode": "YX",
        "iataCode": "NYC",
        "dupeId": 700068836,
        "name": "LIBRARY HOTEL",
        "hotelId": "YXNYC523",
        "geoCode": {
            "latitude": 40.75212,
            "longitude": -73.97942
        },
        "address": {
            "countryCode": "US"
        },
        "lastUpdate": "2023-06-15T09:59:13"
    },
    {
        "chainCode": "PW",
        "iataCode": "NYC",
        "dupeId": 700051445,
        "name": "HOTEL 373 FIFTH AVENUE",
        "hotelId": "PWNYC276",
        "geoCode": {
            "latitude": 40.74908,
            "longitude": -73.9837
        },
        "address": {
            "countryCode": "US"
        },
        "lastUpdate": "2023-06-15T10:25:24"
    },
    {
        "chainCode": "WW",
        "iataCode": "NYC",
        "dupeId": 700004493,
        "name": "AMERITANIA HOTEL",
        "hotelId": "WWNYCAME",
        "geoCode": {
            "latitude": 40.76404,
            "longitude": -73.98251
        },
        "address": {
            "countryCode": "US"
        },
        "masterChainCode": "EW",
        "lastUpdate": "2023-06-15T09:58:41"
    },